
[[{"Longitude":-77.424417,"PostingURL":"/nva/fuo/4427574665.html","Ask":"25","ImageThumb":"http://images.craigslist.org/00r0r_dQt7CUvXUtD_50x50c.jpg","PostingID":"4427574665","CategoryID":"141","Latitude":38.835881,"PostingTitle":"Corner Desk","PostedDate":"1397944213"},{"Longitude":-77.4558151926091,"NumPosts":"2","PostedDate":"1397944142","GeoCluster":"112082851494","PostingID":"4430894911","url":"/jsonsearch/sss/?geocluster=112082851494&key=v2qeCgLCNaaJvTXF4TD8hg","Latitude":38.8194948998513},{"Longitude":-77.2514984428764,"NumPosts":"5","PostedDate":"1397943136","GeoCluster":"112092171428","PostingID":"4430872842","url":"/jsonsearch/sss/?geocluster=112092171428&key=ciKe4F0jzB_vwjleIQegDg","Latitude":39.1125055162654},{"Longitude":-77.041624,"PostingURL":"/doc/fuo/4430865865.html","Ask":"75","ImageThumb":"http://images.craigslist.org/00l0l_8sftzvQLqUk_50x50c.jpg","PostingID":"4430865865","CategoryID":"141","Latitude":38.916783,"PostingTitle":"Dresser + Nightstand + Desk + Chair","PostedDate":"1397942832"},{"Longitude":-77.0203099725536,"NumPosts":"3","PostedDate":"1397942597","GeoCluster":"112082995719","PostingID":"4430236221","url":"/jsonsearch/sss/?geocluster=112082995719&key=CC8gqbz2iSR9rPQWXre51w","Latitude":38.9517908547399},{"Longitude":-77.1854937048809,"NumPosts":"4","PostedDate":"1397944573","GeoCluster":"112092187134","PostingID":"4429672974","url":"/jsonsearch/sss/?geocluster=112092187134&key=1f7r1TymyrfRVptzz2HuRQ","Latitude":39.173009859428},{"Longitude":-77.1378809121081,"NumPosts":"2","PostedDate":"1397938972","GeoCluster":"112082888632","PostingID":"4428803683","url":"/jsonsearch/sss/?geocluster=112082888632&key=3VWBhHZKEmKS5jA-w8mYeA","Latitude":38.8832078066664},{"Longitude":-76.874377,"PostingURL":"/mld/fuo/4397687437.html","Ask":"40","ImageThumb":"http://images.craigslist.org/00X0X_bB9YPXmf8tv_50x50c.jpg","PostingID":"4397687437","CategoryID":"141","Latitude":38.999346,"PostingTitle":"IKEA Matteus pine desk","PostedDate":"1397938197"},{"Longitude":-77.002032,"PostingURL":"/doc/fuo/4430829817.html","Ask":"50","ImageThumb":"http://images.craigslist.org/00j0j_f2xV0RrMQuu_50x50c.jpg","PostingID":"4430829817","CategoryID":"141","Latitude":38.914835,"PostingTitle":"Small corner desk","PostedDate":"1397941273"},{"Longitude":-77.1939161844689,"NumPosts":"2","PostedDate":"1397939386","GeoCluster":"112082886036","PostingID":"4430784215","url":"/jsonsearch/sss/?geocluster=112082886036&key=OdJwme2mBh5x1ldeUDCZmw","Latitude":38.863498058515},{"Longitude":-77.180222,"PostingURL":"/nva/fuo/4430727675.html","Ask":"50","ImageThumb":"http://images.craigslist.org/00Z0Z_1pwSeuPQXjU_50x50c.jpg","PostingID":"4430727675","CategoryID":"141","Latitude":38.885614,"PostingTitle":"IKEA White Desk","PostedDate":"1397937163"},{"Longitude":-77.390096,"PostingURL":"/nva/fuo/4417017137.html","Ask":"40","ImageThumb":"http://images.craigslist.org/00Q0Q_ac6YV72cc6h_50x50c.jpg","PostingID":"4417017137","CategoryID":"141","Latitude":39.022608,"PostingTitle":"Student Desk/ Computer Desk","PostedDate":"1397925934"},{"Longitude":-77.041394,"PostingURL":"/doc/fuo/4430294227.html","Ask":"100","ImageThumb":"http://images.craigslist.org/00101_hKxy4aDTy10_50x50c.jpg","PostingID":"4430294227","CategoryID":"141","Latitude":38.908704,"PostingTitle":"Desk with embedded power strip for all appliances","PostedDate":"1397923085"},{"Longitude":-76.988338,"PostingURL":"/doc/fuo/4430436797.html","Ask":"100","ImageThumb":"http://images.craigslist.org/00909_eKMKt2T4duP_50x50c.jpg","PostingID":"4430436797","CategoryID":"141","Latitude":38.878509,"PostingTitle":"Glass L-shaped desk with slide out keyboard tray","PostedDate":"1397926645"},{"Longitude":-77.223251,"PostingURL":"/nva/fuo/4430460184.html","Ask":"65","ImageThumb":"http://images.craigslist.org/00d0d_8gSJtWaHSfv_50x50c.jpg","PostingID":"4430460184","CategoryID":"141","Latitude":38.855304,"PostingTitle":"Desk for Sale ","PostedDate":"1397927455"},{"Longitude":-77.618076,"PostingURL":"/nva/fuo/4430585806.html","Ask":"20","ImageThumb":"http://images.craigslist.org/00505_8OgaYBoHSvD_50x50c.jpg","PostingID":"4430585806","CategoryID":"141","Latitude":38.74564,"PostingTitle":"Computer Desk","PostedDate":"1397931887"},{"Longitude":-77.000714,"PostingURL":"/mld/fuo/4430361528.html","Ask":"10","ImageThumb":"http://images.craigslist.org/00N0N_k5l5Ryl3l0G_50x50c.jpg","PostingID":"4430361528","CategoryID":"141","Latitude":38.983188,"PostingTitle":"ikea expedit desk extension","PostedDate":"1397924041"},{"Longitude":-77.023575,"PostingURL":"/doc/fuo/4430509855.html","Ask":"70","ImageThumb":"http://images.craigslist.org/00g0g_dtWWUr5lR42_50x50c.jpg","PostingID":"4430509855","CategoryID":"141","Latitude":38.947264,"PostingTitle":"Desk","PostedDate":"1397929197"},{"Longitude":-77.037212,"PostingURL":"/doc/fuo/4430492278.html","Ask":"30","ImageThumb":"http://images.craigslist.org/00P0P_c6fOlJGBlNN_50x50c.jpg","PostingID":"4430492278","CategoryID":"141","Latitude":38.928757,"PostingTitle":"Leather Desk Chair","PostedDate":"1397928573"},{"Longitude":-77.2615825000702,"NumPosts":"2","PostedDate":"1397928280","GeoCluster":"112082778328","PostingID":"4430483925","url":"/jsonsearch/sss/?geocluster=112082778328&key=AKQ0fpYTWyBkeGGlgAzHwQ","Latitude":38.7825964178468},{"Longitude":-77.045004,"PostingURL":"/doc/fuo/4430223106.html","Ask":"90","ImageThumb":"http://images.craigslist.org/01515_3idbpKCMWKR_50x50c.jpg","PostingID":"4430223106","CategoryID":"141","Latitude":38.908074,"PostingTitle":"Java Linea Leaning Desk from The Container Store (excellent condition)","PostedDate":"1397920007"},{"Longitude":-77.1394851939344,"NumPosts":"2","PostedDate":"1397915220","GeoCluster":"112082888630","PostingID":"4430121529","url":"/jsonsearch/sss/?geocluster=112082888630&key=mAWBNnOqfD_sA3uzYpmiCg","Latitude":38.883608877123},{"Longitude":-77.028102,"PostingURL":"/doc/fuo/4417976681.html","Ask":"20","ImageThumb":"http://images.craigslist.org/00r0r_5i32a9oKs5l_50x50c.jpg","PostingID":"4417976681","CategoryID":"141","Latitude":38.91111,"PostingTitle":"Comfortable Leather Desk Chair","PostedDate":"1397926530"},{"Longitude":-77.001688,"PostingURL":"/doc/fuo/4430181507.html","Ask":"50","ImageThumb":"http://images.craigslist.org/00Z0Z_7j0krydpeQx_50x50c.jpg","PostingID":"4430181507","CategoryID":"141","Latitude":38.897417,"PostingTitle":"Beautiful Copenhagen Wood Desk/Shelves Unit","PostedDate":"1397917331"},{"Longitude":-77.1672163512172,"NumPosts":"4","PostedDate":"1397920708","GeoCluster":"112082789362","PostingID":"4430268484","url":"/jsonsearch/sss/?geocluster=112082789362&key=Ir1Xto95Av_QApqv20HRzQ","Latitude":38.7960609260317},{"Longitude":-77.097315,"PostingURL":"/doc/fuo/4426093026.html","Ask":"15","ImageThumb":"http://images.craigslist.org/00F0F_bLn2BO9DnTD_50x50c.jpg","PostingID":"4426093026","CategoryID":"141","Latitude":38.935977,"PostingTitle":"DESK  40x24in. Wood Laminate with Metal Legs","PostedDate":"1397924900"},{"Longitude":-76.987021,"PostingURL":"/doc/fuo/4430144827.html","Ask":"100","ImageThumb":"http://images.craigslist.org/01111_59y88zkcHvq_50x50c.jpg","PostingID":"4430144827","CategoryID":"141","Latitude":38.939816,"PostingTitle":"Shabby chic secretary/governor's desk","PostedDate":"1397915702"},{"Longitude":-76.937574,"PostingURL":"/doc/fuo/4430368195.html","Ask":"60","ImageThumb":"http://images.craigslist.org/00t0t_dWY5SlErG2T_50x50c.jpg","PostingID":"4430368195","CategoryID":"141","Latitude":38.890197,"PostingTitle":"Office Desk with Hutch for $60.00 Firm!","PostedDate":"1397924274"},{"Longitude":-76.9984229847808,"NumPosts":"2","PostedDate":"1397923880","GeoCluster":"112083809021","PostingID":"4430356939","url":"/jsonsearch/sss/?geocluster=112083809021&key=lpXvU_WVAaEKJ_KBTV5MOA","Latitude":38.8920313567109},{"Longitude":-77.381502,"PostingURL":"/nva/fuo/4430340199.html","Ask":"80","ImageThumb":"http://images.craigslist.org/00k0k_lxP32aq7rsp_50x50c.jpg","PostingID":"4430340199","CategoryID":"141","Latitude":39.051027,"PostingTitle":"Leather desk chair","PostedDate":"1397923290"},{"Longitude":-77.292121150549,"NumPosts":"2","PostedDate":"1397922714","GeoCluster":"112082576067","PostingID":"4421207027","url":"/jsonsearch/sss/?geocluster=112082576067&key=e58HIK-Jf9kB_m6x8kEOWw","Latitude":38.5668778079917},{"Longitude":-77.059901356195,"NumPosts":"4","PostedDate":"1397922723","GeoCluster":"112082993460","PostingID":"4427662687","url":"/jsonsearch/sss/?geocluster=112082993460&key=NhfTxm77mQSd1k3ImJJ75w","Latitude":38.9363209942722},{"Longitude":-77.0739961179545,"NumPosts":"6","PostedDate":"1397922033","GeoCluster":"112082991246","PostingID":"4427815497","url":"/jsonsearch/sss/?geocluster=112082991246&key=qcvoIx3eDhmmc4h8Elk_Cg","Latitude":38.9143767107198},{"Longitude":-77.056979,"PostingURL":"/nva/fuo/4422841576.html","Ask":"50","ImageThumb":"http://images.craigslist.org/00p0p_3WzN1ynq1gS_50x50c.jpg","PostingID":"4422841576","CategoryID":"141","Latitude":38.836053,"PostingTitle":"Solid office desk with file drawers","PostedDate":"1397912391"},{"Longitude":-77.115306,"PostingURL":"/mld/bab/4430223750.html","Ask":"75","ImageThumb":"http://images.craigslist.org/00A0A_ciMmy6NXSNI_50x50c.jpg","PostingID":"4430223750","CategoryID":"107","Latitude":38.958494,"PostingTitle":"Child desk and chair","PostedDate":"1397919018"},{"Longitude":-77.062021,"PostingURL":"/nva/fuo/4430018637.html","Ask":"100","ImageThumb":"http://images.craigslist.org/00O0O_j4iwa0sSSVx_50x50c.jpg","PostingID":"4430018637","CategoryID":"141","Latitude":38.831412,"PostingTitle":"Teak Wood Desk","PostedDate":"1397907102"},{"Longitude":-77.3884926516848,"NumPosts":"8","PostedDate":"1397933616","GeoCluster":"112082867171","PostingID":"4429999287","url":"/jsonsearch/sss/?geocluster=112082867171&key=_eikCf4nuqIcvD_5MS4adg","Latitude":38.8775928202744},{"Longitude":-77.283354,"PostingURL":"/nva/fuo/4430027867.html","Ask":"10","ImageThumb":"http://images.craigslist.org/00n0n_kFE3vL8jaLE_50x50c.jpg","PostingID":"4430027867","CategoryID":"141","Latitude":38.677401,"PostingTitle":"LAIVA Desk","PostedDate":"1397908121"},{"Longitude":-77.1484806313175,"NumPosts":"2","PostedDate":"1397909525","GeoCluster":"112082785591","PostingID":"4428611986","url":"/jsonsearch/sss/?geocluster=112082785591&key=86A_Um8T4-mO_MXOitXWmA","Latitude":38.7596208102633},{"Longitude":-77.226918,"PostingURL":"/nva/hsh/4430042066.html","Ask":"30","ImageThumb":"http://images.craigslist.org/00P0P_iibyWGuNzvd_50x50c.jpg","PostingID":"4430042066","CategoryID":"97","Latitude":38.886588,"PostingTitle":"Lamp, Desk","PostedDate":"1397909449"},{"Longitude":-77.830013,"PostingURL":"/nva/fuo/4415974967.html","Ask":"20","ImageThumb":"http://images.craigslist.org/00505_aCEWKqpgYZc_50x50c.jpg","PostingID":"4415974967","CategoryID":"141","Latitude":38.39562,"PostingTitle":"Desk Chair ","PostedDate":"1397908670"},{"Longitude":-77.5530461304376,"NumPosts":"3","PostedDate":"1397945030","GeoCluster":"112082942446","PostingID":"4430914332","url":"/jsonsearch/sss/?geocluster=112082942446&key=o3wWdYDIEuUHDGZmHkkoWw","Latitude":38.9242315847956},{"Longitude":-77.278828,"PostingURL":"/nva/fuo/4430009453.html","Ask":"35","ImageThumb":"http://images.craigslist.org/00U0U_p7TLtCw9kG_50x50c.jpg","PostingID":"4430009453","CategoryID":"141","Latitude":38.8859,"PostingTitle":"desk and night stands","PostedDate":"1397905948"},{"Longitude":-77.1538091388119,"NumPosts":"2","PostedDate":"1397905821","GeoCluster":"112082988496","PostingID":"4419406543","url":"/jsonsearch/sss/?geocluster=112082988496&key=5SVTDorRRcH5xZXy8g3sgw","Latitude":38.9896060692165},{"Longitude":-77.0904973024533,"NumPosts":"6","PostedDate":"1397903185","GeoCluster":"112082894019","PostingID":"4429993091","url":"/jsonsearch/sss/?geocluster=112082894019&key=zlatZrvPD42hKrK15anxPw","Latitude":38.8414964791831},{"Longitude":-77.0749128504266,"NumPosts":"3","PostedDate":"1397912587","GeoCluster":"112092195225","PostingID":"4430086048","url":"/jsonsearch/sss/?geocluster=112092195225&key=Gno6ypyejNNvmm4N7e8dbg","Latitude":39.1526125619224},{"Longitude":-77.101154,"PostingURL":"/mld/fuo/4429946983.html","Ask":"100","ImageThumb":"http://images.craigslist.org/00h0h_3ytYQ52y4nj_50x50c.jpg","PostingID":"4429946983","CategoryID":"141","Latitude":38.949269,"PostingTitle":"Ottoman, Desk, Couch, Bed, Chairs, Dining Table, Office Chair","PostedDate":"1397892426"},{"Longitude":-77.472316377108,"NumPosts":"5","PostedDate":"1397882454","GeoCluster":"112082958217","PostingID":"4428629573","url":"/jsonsearch/sss/?geocluster=112082958217&key=IzM_zBEENxF2Kq1Yd556Lg","Latitude":38.9814127727465},{"Longitude":-77.084767,"PostingURL":"/nva/fuo/4429869865.html","Ask":"20","ImageThumb":"http://images.craigslist.org/00a0a_dqywu5xmP7X_50x50c.jpg","PostingID":"4429869865","CategoryID":"141","Latitude":38.874899,"PostingTitle":"Computer desk with pullout keyboard tray","PostedDate":"1397882342"},{"Longitude":-77.4248181758942,"NumPosts":"7","PostedDate":"1397870260","GeoCluster":"112082656765","PostingID":"4422984736","url":"/jsonsearch/sss/?geocluster=112082656765&key=MXHqQFzZ5TEc2ozZIDKJ4Q","Latitude":38.6665151685596},{"Longitude":-77.27751,"PostingURL":"/nva/hsh/4421331537.html","Ask":"10","ImageThumb":"http://images.craigslist.org/00U0U_eAJoobeowYk_50x50c.jpg","PostingID":"4421331537","CategoryID":"97","Latitude":38.867967,"PostingTitle":"Moving sale, Fairfax, this Sat&Sun 11-4, bed, desk, shelf, and more ","PostedDate":"1397875214"},{"Longitude":-77.1865823246916,"NumPosts":"4","PostedDate":"1397911502","GeoCluster":"112082787193","PostingID":"4430069199","url":"/jsonsearch/sss/?geocluster=112082787193&key=p0_28Q80rVnuMBAzRkpC7w","Latitude":38.7796743330918},{"Longitude":-76.993782,"PostingURL":"/doc/fuo/4414998788.html","Ask":"100","ImageThumb":"http://images.craigslist.org/00e0e_88jSrx6XoDU_50x50c.jpg","PostingID":"4414998788","CategoryID":"141","Latitude":38.889854,"PostingTitle":"Vintage Industrial Orange Tanker Desk","PostedDate":"1397861565"},{"Longitude":-77.1193743753264,"NumPosts":"2","PostedDate":"1397865812","GeoCluster":"112082787890","PostingID":"4429613325","url":"/jsonsearch/sss/?geocluster=112082787890&key=vuZdGtuzsEdsaC_iEdjShQ","Latitude":38.7793878541943},{"Longitude":-77.028216790126,"NumPosts":"7","PostedDate":"1397864508","GeoCluster":"112082997751","PostingID":"4420038595","url":"/jsonsearch/sss/?geocluster=112082997751&key=zMU27F7m7QWRscG3wY_l6A","Latitude":38.9756831947955},{"Longitude":-77.510017,"PostingURL":"/nva/fuo/4419508842.html","Ask":"75","ImageThumb":"http://images.craigslist.org/00Y0Y_c6GVuRkWMPF_50x50c.jpg","PostingID":"4419508842","CategoryID":"141","Latitude":39.101332,"PostingTitle":"desk","PostedDate":"1397864243"},{"Longitude":-77.5265754803039,"NumPosts":"6","PostedDate":"1397854264","GeoCluster":"112082749733","PostingID":"4429338777","url":"/jsonsearch/sss/?geocluster=112082749733&key=-Lj3fdxzCs5snJfmTlX0Bw","Latitude":38.7930242497177},{"Longitude":-77.420349,"PostingURL":"/nva/fuo/4429332710.html","Ask":"100","ImageThumb":"http://images.craigslist.org/00505_2cwsPptKKjT_50x50c.jpg","PostingID":"4429332710","CategoryID":"141","Latitude":38.894781,"PostingTitle":"Oak Desk with filing cabinets","PostedDate":"1397854041"},{"Longitude":-77.472545,"PostingURL":"/nva/fuo/4429436620.html","Ask":"100","ImageThumb":"http://images.craigslist.org/00h0h_f0XmhCFZOxe_50x50c.jpg","PostingID":"4429436620","CategoryID":"141","Latitude":38.855476,"PostingTitle":"Oak secretary/desk","PostedDate":"1397857995"},{"Longitude":-77.182858,"PostingURL":"/nva/fuo/4429284545.html","Ask":"90","ImageThumb":"http://images.craigslist.org/00Y0Y_djk7Uk20sjA_50x50c.jpg","PostingID":"4429284545","CategoryID":"141","Latitude":38.868769,"PostingTitle":"Crate and Barrel Leaning Desk","PostedDate":"1397852314"},{"Longitude":-77.189103,"PostingURL":"/mld/fuo/4429413267.html","Ask":"10","ImageThumb":"http://images.craigslist.org/00E0E_doDxYiPT47p_50x50c.jpg","PostingID":"4429413267","CategoryID":"141","Latitude":39.200454,"PostingTitle":"Ikea Desk","PostedDate":"1397857083"},{"Longitude":-77.212537,"PostingURL":"/nva/fuo/4429280989.html","Ask":"10","ImageThumb":"http://images.craigslist.org/00707_AayDzEsWUq_50x50c.jpg","PostingID":"4429280989","CategoryID":"141","Latitude":38.740025,"PostingTitle":"Bombay Company Desk Blotter (Wood and Leather) ","PostedDate":"1397852186"},{"Longitude":-77.3242067870746,"NumPosts":"7","PostedDate":"1397912420","GeoCluster":"112082864755","PostingID":"4430083284","url":"/jsonsearch/sss/?geocluster=112082864755&key=7bl41tCIPrXmC543oZFVnw","Latitude":38.8457936626464},{"Longitude":-77.2220484122083,"NumPosts":"3","PostedDate":"1397855609","GeoCluster":"112082970757","PostingID":"4429374863","url":"/jsonsearch/sss/?geocluster=112082970757&key=FeC0Sc6epqxQqPzomueLgA","Latitude":38.9057250480138},{"Longitude":-77.087976,"PostingURL":"/doc/fuo/4429280148.html","Ask":"10","ImageThumb":"http://images.craigslist.org/00Q0Q_8FrNRpBFS5E_50x50c.jpg","PostingID":"4429280148","CategoryID":"141","Latitude":38.939414,"PostingTitle":"drafting desk","PostedDate":"1397852155"},{"Longitude":-77.3027208697584,"NumPosts":"5","PostedDate":"1397846431","GeoCluster":"112082864997","PostingID":"4429112377","url":"/jsonsearch/sss/?geocluster=112082864997&key=i5i3BLZ0XOpwnkYVGNwLzA","Latitude":38.849689775653},{"Longitude":-77.196322,"PostingURL":"/mld/fuo/4428998783.html","Ask":"60","ImageThumb":"http://images.craigslist.org/01010_fP7PCJfZ8Dq_50x50c.jpg","PostingID":"4428998783","CategoryID":"141","Latitude":39.180171,"PostingTitle":"Roll Top Secretary Desk with Chair","PostedDate":"1397842779"},{"Longitude":-77.0529112710948,"NumPosts":"5","PostedDate":"1397850179","GeoCluster":"112082890457","PostingID":"4429135876","url":"/jsonsearch/sss/?geocluster=112082890457&key=rPJg5Kgth45u65Np6A8XMA","Latitude":38.8059730958869},{"Longitude":-77.272182,"PostingURL":"/mld/fuo/4429177660.html","Ask":"50","ImageThumb":"http://images.craigslist.org/00808_44bTGEvg58D_50x50c.jpg","PostingID":"4429177660","CategoryID":"141","Latitude":39.194094,"PostingTitle":"Comfortable office desk chair","PostedDate":"1397850281"},{"Longitude":-77.062594,"PostingURL":"/nva/fuo/4419901295.html","Ask":"20","ImageThumb":"http://images.craigslist.org/00q0q_fRE2BoD1U70_50x50c.jpg","PostingID":"4419901295","CategoryID":"141","Latitude":38.862122,"PostingTitle":"Desk Chair","PostedDate":"1397849939"},{"Longitude":-77.0753139208832,"NumPosts":"10","PostedDate":"1397889114","GeoCluster":"112082899224","PostingID":"4429927272","url":"/jsonsearch/sss/?geocluster=112082899224&key=Q1cwPReG9yHdeBuyKxZFMQ","Latitude":38.892604314506},{"Longitude":-77.0860282316516,"NumPosts":"4","PostedDate":"1397843947","GeoCluster":"112082993184","PostingID":"4429035617","url":"/jsonsearch/sss/?geocluster=112082993184&key=1NjTmXuogoHdaSAn8jOp_w","Latitude":38.938097163437},{"Longitude":-77.2818079102372,"NumPosts":"4","PostedDate":"1397864447","GeoCluster":"112082778198","PostingID":"4429584702","url":"/jsonsearch/sss/?geocluster=112082778198&key=en4PH2eAmOtMuIPXm_uTIw","Latitude":38.7894146156085},{"Longitude":-77.1633202382105,"NumPosts":"2","PostedDate":"1397841010","GeoCluster":"112082889356","PostingID":"4428943139","url":"/jsonsearch/sss/?geocluster=112082889356&key=vj3YW_oe_60Hk1aYMFOgUg","Latitude":38.895411807702},{"Longitude":-77.231903,"PostingURL":"/nva/fuo/4393188524.html","Ask":"100","ImageThumb":"http://images.craigslist.org/00J0J_d0x1g0HnaUX_50x50c.jpg","PostingID":"4393188524","CategoryID":"141","Latitude":38.877822,"PostingTitle":"office desk, filecabinet, bookcase","PostedDate":"1397844669"},{"Longitude":-77.363855,"PostingURL":"/nva/fuo/4429003810.html","Ask":"59","ImageThumb":"http://images.craigslist.org/00O0O_kpHIsjQj3v6_50x50c.jpg","PostingID":"4429003810","CategoryID":"141","Latitude":38.66428,"PostingTitle":"Computer Desk, 20\" x 47\" (IKEA) + Chair","PostedDate":"1397842941"},{"Longitude":-77.1680184921304,"NumPosts":"11","PostedDate":"1397939827","GeoCluster":"112092088371","PostingID":"4430794917","url":"/jsonsearch/sss/?geocluster=112092088371&key=GDqk4jz239AA2G9mIHoD_Q","Latitude":39.0870088943835},{"Longitude":-77.047124,"PostingURL":"/nva/hsh/4428888143.html","Ask":"100","ImageThumb":"http://images.craigslist.org/00g0g_aW0EJpph0K1_50x50c.jpg","PostingID":"4428888143","CategoryID":"97","Latitude":38.821271,"PostingTitle":"Computer Desk, Entertainment Center, TV Center","PostedDate":"1397839252"},{"Longitude":-77.278771,"PostingURL":"/nva/fuo/4425245798.html","Ask":"80","ImageThumb":"http://images.craigslist.org/00y0y_6TBhs9lgrY3_50x50c.jpg","PostingID":"4425245798","CategoryID":"141","Latitude":38.763917,"PostingTitle":"Full/Futon & Queen Size Beds; Desk/Hutch/Office Cabinet","PostedDate":"1397836664"},{"Longitude":-77.2370026106604,"NumPosts":"4","PostedDate":"1397834273","GeoCluster":"112082774643","PostingID":"4428734425","url":"/jsonsearch/sss/?geocluster=112082774643&key=JIqznYq0qN3e6huMB7FK0A","Latitude":38.7448957949293},{"Longitude":-77.039962,"PostingURL":"/doc/fuo/4423283464.html","Ask":"20","ImageThumb":"http://images.craigslist.org/00404_81CXrmQl9Xj_50x50c.jpg","PostingID":"4423283464","CategoryID":"141","Latitude":38.916897,"PostingTitle":"Desk","PostedDate":"1397831196"},{"Longitude":-77.145845,"PostingURL":"/mld/fuo/4428777017.html","Ask":"50","ImageThumb":"http://images.craigslist.org/00Q0Q_cEn1lRelBtF_50x50c.jpg","PostingID":"4428777017","CategoryID":"141","Latitude":39.084258,"PostingTitle":"Desk chair","PostedDate":"1397835686"},{"Longitude":-76.917292,"PostingURL":"/mld/fuo/4428731936.html","Ask":"60","ImageThumb":"http://images.craigslist.org/00y0y_6iMvrbUNIg2_50x50c.jpg","PostingID":"4428731936","CategoryID":"141","Latitude":38.795889,"PostingTitle":"Solid wood Desk Hutch","PostedDate":"1397834845"},{"Longitude":-77.154783,"PostingURL":"/nva/fuo/4428730403.html","Ask":"50","ImageThumb":"http://images.craigslist.org/00e0e_hlXDzfYfzAD_50x50c.jpg","PostingID":"4428730403","CategoryID":"141","Latitude":38.858914,"PostingTitle":"Desk","PostedDate":"1397834134"},{"Longitude":-77.171341,"PostingURL":"/nva/fuo/4399061944.html","Ask":"95","ImageThumb":"http://images.craigslist.org/00f0f_1YO5IVyvIpU_50x50c.jpg","PostingID":"4399061944","CategoryID":"141","Latitude":38.881947,"PostingTitle":"Vintage Electric Board Table / desk","PostedDate":"1397829205"},{"Longitude":-77.121437,"PostingURL":"/mld/fuo/4428704364.html","Ask":"80","ImageThumb":"http://images.craigslist.org/00B0B_h8JLkpxx3ZO_50x50c.jpg","PostingID":"4428704364","CategoryID":"141","Latitude":39.058762,"PostingTitle":"Desk IKEA Malm ","PostedDate":"1397833209"},{"Longitude":-77.273041,"PostingURL":"/nva/fuo/4428671128.html","Ask":"40","ImageThumb":"http://images.craigslist.org/00U0U_p7TLtCw9kG_50x50c.jpg","PostingID":"4428671128","CategoryID":"141","Latitude":38.883436,"PostingTitle":"desk and night stand","PostedDate":"1397832011"},{"Longitude":-77.181368,"PostingURL":"/nva/fuo/4428639158.html","Ask":"75","ImageThumb":"http://images.craigslist.org/00e0e_6opG800jdzO_50x50c.jpg","PostingID":"4428639158","CategoryID":"141","Latitude":38.946347,"PostingTitle":"Desk with credenza","PostedDate":"1397830792"},{"Longitude":-77.5092148591124,"NumPosts":"2","PostedDate":"1397855138","GeoCluster":"112082849970","PostingID":"4393131793","url":"/jsonsearch/sss/?geocluster=112082849970&key=NuV7xGhrupBrl_5WduX4YQ","Latitude":38.8975890473234},{"Longitude":-77.3451197465958,"NumPosts":"6","PostedDate":"1397944787","GeoCluster":"112082664534","PostingID":"4423945278","url":"/jsonsearch/sss/?geocluster=112082664534&key=9wQl6Atf9Q6SBjXnjj7TtQ","Latitude":38.6438260398736},{"Longitude":-77.0604170182106,"NumPosts":"2","PostedDate":"1397845387","GeoCluster":"112082994339","PostingID":"4429080421","url":"/jsonsearch/sss/?geocluster=112082994339&key=D0GpmAymLuk1ybKZ6Ii71g","Latitude":38.9431964878134},{"Longitude":-77.31905,"PostingURL":"/nva/fuo/4428560140.html","Ask":"45","ImageThumb":"http://images.craigslist.org/00B0B_j8rl5OQLw3g_50x50c.jpg","PostingID":"4428560140","CategoryID":"141","Latitude":38.637237,"PostingTitle":"SEVEN DRAWER PINE DESK.","PostedDate":"1397827390"},{"Longitude":-76.9434190364512,"NumPosts":"7","PostedDate":"1397929848","GeoCluster":"112083603536","PostingID":"4426436394","url":"/jsonsearch/sss/?geocluster=112083603536&key=x1Fof5stU4ukYiZL6cSwqw","Latitude":38.6331117291053},{"Longitude":-76.978197,"PostingURL":"/doc/fuo/4419496204.html","Ask":"60","ImageThumb":"http://images.craigslist.org/00a0a_d5AF1XoKSBH_50x50c.jpg","PostingID":"4419496204","CategoryID":"141","Latitude":38.888708,"PostingTitle":"Tall corner computer work station desk from IKEA","PostedDate":"1397821253"},{"Longitude":-77.253217,"PostingURL":"/nva/atq/4421537654.html","Ask":"100","ImageThumb":"http://images.craigslist.org/00D0D_4M33pV3YXsg_50x50c.jpg","PostingID":"4421537654","CategoryID":"150","Latitude":38.893521,"PostingTitle":"Antique Writing Desk","PostedDate":"1397819822"},{"Longitude":-76.9894848431772,"NumPosts":"3","PostedDate":"1397862489","GeoCluster":"112083808120","PostingID":"4429542580","url":"/jsonsearch/sss/?geocluster=112083808120&key=bfEgBckTxMtRtWH9rCuGxQ","Latitude":38.8829213277688},{"Longitude":-77.3162999695022,"NumPosts":"6","PostedDate":"1397821985","GeoCluster":"112082667853","PostingID":"4422593274","url":"/jsonsearch/sss/?geocluster=112082667853&key=MZ7mTRFCf-kfvXLUJm0X_g","Latitude":38.6760262679582},{"Longitude":-76.929897,"PostingURL":"/mld/fuo/4412199987.html","Ask":"55","ImageThumb":"http://images.craigslist.org/01616_kYeLEC5bzfw_50x50c.jpg","PostingID":"4412199987","CategoryID":"141","Latitude":38.996309,"PostingTitle":"small wood table/ desk","PostedDate":"1397819900"},{"Longitude":-77.068954,"PostingURL":"/doc/fuo/4419556777.html","Ask":"35","ImageThumb":"http://images.craigslist.org/00n0n_2iF1nZX3mbk_50x50c.jpg","PostingID":"4419556777","CategoryID":"141","Latitude":38.917184,"PostingTitle":"Executive Desk Chair","PostedDate":"1397819320"},{"Longitude":-77.0588700321638,"NumPosts":"2","PostedDate":"1397883652","GeoCluster":"112082892401","PostingID":"4429882973","url":"/jsonsearch/sss/?geocluster=112082892401&key=bDt-KReEdCiWQkmydhYalA","Latitude":38.8200105618669},{"Longitude":-77.2141988904154,"NumPosts":"3","PostedDate":"1397868102","GeoCluster":"112082873805","PostingID":"4429658072","url":"/jsonsearch/sss/?geocluster=112082873805&key=9KY5oMP6ysN_sOuab1v65A","Latitude":38.8307248726352},{"Longitude":-77.0059287318966,"NumPosts":"3","PostedDate":"1397787605","GeoCluster":"112092191944","PostingID":"4428203264","url":"/jsonsearch/sss/?geocluster=112092191944&key=DWrZxXpxo9RB2qUpICt7MA","Latitude":39.1147973474458},{"Longitude":-77.599684,"PostingURL":"/nva/fuo/4428184968.html","Ask":"75","ImageThumb":"http://images.craigslist.org/00q0q_9wxngjL3Mxh_50x50c.jpg","PostingID":"4428184968","CategoryID":"141","Latitude":39.156222,"PostingTitle":"Office Desk / Desk top CPU storage and drawers","PostedDate":"1397786506"},{"Longitude":-77.225543,"PostingURL":"/mld/fuo/4419692400.html","Ask":"80","ImageThumb":"http://images.craigslist.org/00101_6oG0snj0pkd_50x50c.jpg","PostingID":"4419692400","CategoryID":"141","Latitude":39.251161,"PostingTitle":"Office Desk","PostedDate":"1397792265"},{"Longitude":-77.367522,"PostingURL":"/nva/fuo/4427963024.html","Ask":"20","ImageThumb":"http://images.craigslist.org/00d0d_8JtzHQ0OC9W_50x50c.jpg","PostingID":"4427963024","CategoryID":"141","Latitude":38.983876,"PostingTitle":"Disney Cars Desk & Chair with Storage Bin","PostedDate":"1397776301"},{"Longitude":-77.0374987064066,"NumPosts":"9","PostedDate":"1397944913","GeoCluster":"112082992602","PostingID":"4430911766","url":"/jsonsearch/sss/?geocluster=112082992602&key=GD1WEuUH4J9aMY9xBjDP3w","Latitude":38.9202208802299},{"Longitude":-77.394909,"PostingURL":"/nva/fuo/4427986199.html","Ask":"100","ImageThumb":"http://images.craigslist.org/00i0i_2mddTq4Z0WA_50x50c.jpg","PostingID":"4427986199","CategoryID":"141","Latitude":38.834735,"PostingTitle":"Wood Desk Table Pull-Out/Sliding Shelves - Good Condition","PostedDate":"1397776570"},{"Longitude":-77.598653,"PostingURL":"/nva/fuo/4428005666.html","Ask":"100","ImageThumb":"http://images.craigslist.org/00x0x_6o04oC8r2OF_50x50c.jpg","PostingID":"4428005666","CategoryID":"141","Latitude":39.155821,"PostingTitle":"Girl's Bedroom dresser, mirror, desk and bookshelf","PostedDate":"1397777457"},{"Longitude":-76.8840033130993,"NumPosts":"4","PostedDate":"1397908837","GeoCluster":"112083919196","PostingID":"4430035131","url":"/jsonsearch/sss/?geocluster=112083919196&key=qcEp6QqyPxXB49_kSanHAA","Latitude":38.9995755348512},{"Longitude":-77.1200619246805,"NumPosts":"2","PostedDate":"1397778012","GeoCluster":"112092181709","PostingID":"4382170683","url":"/jsonsearch/sss/?geocluster=112092181709&key=7FLIWLFOCvVFpIi3rSZq3Q","Latitude":39.1101563893055},{"Longitude":-77.395769,"PostingURL":"/nva/fuo/4428006730.html","Ask":"75","ImageThumb":"http://images.craigslist.org/00P0P_70JvbxeXxLA_50x50c.jpg","PostingID":"4428006730","CategoryID":"141","Latitude":39.031145,"PostingTitle":"Office Desk - great condition","PostedDate":"1397777508"},{"Longitude":-77.464982,"PostingURL":"/nva/atd/4403751620.html","Ask":"65","ImageThumb":"http://images.craigslist.org/00b0b_I9dvfGFBVk_50x50c.jpg","PostingID":"4403751620","CategoryID":"169","Latitude":38.754922,"PostingTitle":"ANTIQUE TRIPLE USE HI-CHAIR! STROLLER, DESK & POTTY CHAIR!","PostedDate":"1397777419"},{"Longitude":-77.007131,"PostingURL":"/doc/fuo/4409853944.html","Ask":"40","ImageThumb":"http://images.craigslist.org/01515_5SwnOQWJO3D_50x50c.jpg","PostingID":"4409853944","CategoryID":"141","Latitude":38.91747,"PostingTitle":"Vintage small / kid rolltop desk","PostedDate":"1397769854"},{"Longitude":-77.447048,"PostingURL":"/nva/fud/4403962716.html","Ask":"75","ImageThumb":"http://images.craigslist.org/00T0T_iPz2hbW6OtS_50x50c.jpg","PostingID":"4403962716","CategoryID":"142","Latitude":38.798238,"PostingTitle":"corner desk w/chair","PostedDate":"1397772296"},{"Longitude":-76.998422,"PostingURL":"/doc/fuo/4413813562.html","Ask":"100","ImageThumb":"http://images.craigslist.org/00H0H_1GCx6i3S3kP_50x50c.jpg","PostingID":"4413813562","CategoryID":"141","Latitude":38.889796,"PostingTitle":"Classy Black Desk - Like New Condition $100","PostedDate":"1397768850"},{"Longitude":-77.2682861062729,"NumPosts":"6","PostedDate":"1397775643","GeoCluster":"112082673351","PostingID":"4422012610","url":"/jsonsearch/sss/?geocluster=112082673351&key=REy8XNvGaIuVuuVR5odVIA","Latitude":38.6355754476242},{"Longitude":-77.189676,"PostingURL":"/mld/fud/4382813706.html","Ask":"10","ImageThumb":"http://images.craigslist.org/01212_ec7ppOYnHjB_50x50c.jpg","PostingID":"4382813706","CategoryID":"142","Latitude":39.141439,"PostingTitle":"Dining / Desk Chairs","PostedDate":"1397775399"},{"Longitude":-77.1209786571526,"NumPosts":"2","PostedDate":"1397774560","GeoCluster":"112082881749","PostingID":"4427940980","url":"/jsonsearch/sss/?geocluster=112082881749&key=vHnXTGn3ndAwPFwJvbePBQ","Latitude":38.8149112374905},{"Longitude":-77.663397,"PostingURL":"/nva/ele/4417263072.html","Ask":"95","ImageThumb":"http://images.craigslist.org/01515_csqy4zoBwhc_50x50c.jpg","PostingID":"4417263072","CategoryID":"96","Latitude":38.785804,"PostingTitle":"Ham Radio Kenwood mc-50 desk microphone","PostedDate":"1397774090"},{"Longitude":-77.440631,"PostingURL":"/nva/fuo/4427913155.html","Ask":"50","ImageThumb":"http://images.craigslist.org/00i0i_aaBR4lMvuQW_50x50c.jpg","PostingID":"4427913155","CategoryID":"141","Latitude":39.049308,"PostingTitle":"Desk Chair","PostedDate":"1397773377"},{"Longitude":-77.4456738396358,"NumPosts":"6","PostedDate":"1397858783","GeoCluster":"112082858564","PostingID":"4429456376","url":"/jsonsearch/sss/?geocluster=112082858564&key=s69YdrHopXMqQKa4pgxR9w","Latitude":38.8867028492165},{"Longitude":-77.077319,"PostingURL":"/mld/fuo/4386774485.html","Ask":"28","ImageThumb":"http://images.craigslist.org/01313_bvwlUUlpDzt_50x50c.jpg","PostingID":"4386774485","CategoryID":"141","Latitude":38.942337,"PostingTitle":"Contemporary White Desk","PostedDate":"1397769405"},{"Longitude":-77.2822089806938,"NumPosts":"2","PostedDate":"1397763782","GeoCluster":"112092173157","PostingID":"4427657467","url":"/jsonsearch/sss/?geocluster=112092173157&key=MHEMKqugugG1K7AkqIpc0g","Latitude":39.1354811238489},{"Longitude":-77.090611,"PostingURL":"/mld/fuo/4390173348.html","Ask":"25","ImageThumb":"http://images.craigslist.org/01212_9QpbF5GJFbW_50x50c.jpg","PostingID":"4390173348","CategoryID":"141","Latitude":38.952134,"PostingTitle":"small computer desk","PostedDate":"1397768186"},{"Longitude":-77.237518,"PostingURL":"/mld/fuo/4427748614.html","Ask":"100","ImageThumb":"http://images.craigslist.org/01616_c534MUptCjD_50x50c.jpg","PostingID":"4427748614","CategoryID":"141","Latitude":39.118235,"PostingTitle":"solid wood desk- NOT ikea","PostedDate":"1397766992"},{"Longitude":-77.2649056552818,"NumPosts":"8","PostedDate":"1397939205","GeoCluster":"112082876305","PostingID":"4427023903","url":"/jsonsearch/sss/?geocluster=112082876305&key=V_FeT-jqrCd-s2BIqA4LpQ","Latitude":38.8604040864214},{"Longitude":-77.487786,"PostingURL":"/nva/for/4390290810.html","Ask":"10","ImageThumb":"http://images.craigslist.org/00J0J_3ogrGDPwzl_50x50c.jpg","PostingID":"4390290810","CategoryID":"5","Latitude":38.749192,"PostingTitle":"Desk Lamp/Organizer","PostedDate":"1397760123"},{"Longitude":-76.947773,"PostingURL":"/doc/fuo/4418165567.html","Ask":"80","ImageThumb":"http://images.craigslist.org/00j0j_bC7ddT3hXjm_50x50c.jpg","PostingID":"4418165567","CategoryID":"141","Latitude":38.822187,"PostingTitle":"Computer Desk  $80 OBO","PostedDate":"1397757215"},{"Longitude":-77.093075,"PostingURL":"/doc/fuo/4427411169.html","Ask":"40","ImageThumb":"http://images.craigslist.org/00U0U_iyNHhFVFae0_50x50c.jpg","PostingID":"4427411169","CategoryID":"141","Latitude":38.943139,"PostingTitle":"Desk Chair","PostedDate":"1397755599"},{"Longitude":-77.188988747431,"NumPosts":"3","PostedDate":"1397789239","GeoCluster":"112092184111","PostingID":"4426079524","url":"/jsonsearch/sss/?geocluster=112092184111&key=lvq47I2jNwow7p67m_3G7w","Latitude":39.141898251154},{"Longitude":-77.644604,"PostingURL":"/nva/fuo/4427157391.html","Ask":"40","ImageThumb":"http://images.craigslist.org/00404_9R6qGMUeiys_50x50c.jpg","PostingID":"4427157391","CategoryID":"141","Latitude":38.738937,"PostingTitle":"Office Credenza / Computer Desk","PostedDate":"1397747253"},{"Longitude":-77.003121,"PostingURL":"/mld/fuo/4427212562.html","Ask":"50","ImageThumb":"http://images.craigslist.org/00O0O_9PyhsHpvjhb_50x50c.jpg","PostingID":"4427212562","CategoryID":"141","Latitude":39.032921,"PostingTitle":"Corner Desk and Chair-Black-Perfect condition","PostedDate":"1397749153"},{"Longitude":-77.2649056552818,"NumPosts":"4","PostedDate":"1397937416","GeoCluster":"112082972385","PostingID":"4426990813","url":"/jsonsearch/sss/?geocluster=112082972385&key=kALRDWMjv3GSmCDJyEm4LQ","Latitude":38.9280131062432},{"Longitude":-77.4669878696135,"NumPosts":"7","PostedDate":"1397937623","GeoCluster":"112082854343","PostingID":"4427583805","url":"/jsonsearch/sss/?geocluster=112082854343&key=_OOqx9bfXgJwVDh3xbdeCg","Latitude":38.8448196343947},{"Longitude":-77.453179,"PostingURL":"/nva/fud/4422722017.html","Ask":"75","ImageThumb":"http://images.craigslist.org/00J0J_bIJpuqQbMv1_50x50c.jpg","PostingID":"4422722017","CategoryID":"142","Latitude":38.77595,"PostingTitle":"Work Craft Office Student Desk Table $75.00 OBO","PostedDate":"1397748983"},{"Longitude":-77.3817890454822,"NumPosts":"3","PostedDate":"1397942933","GeoCluster":"112082768118","PostingID":"4430868231","url":"/jsonsearch/sss/?geocluster=112082768118&key=Tva9qXPBfnrqOqAMy4WJsA","Latitude":38.7817942769337},{"Longitude":-77.249722,"PostingURL":"/nva/fuo/4421692671.html","Ask":"100","ImageThumb":"http://images.craigslist.org/01515_ibUMLtawdk3_50x50c.jpg","PostingID":"4421692671","CategoryID":"141","Latitude":38.922283,"PostingTitle":"THIS END UP Student DESK and Over-the-Desk BOOKSHELVES - PRICE REDUCED","PostedDate":"1397736801"},{"Longitude":-77.039905129146,"NumPosts":"4","PostedDate":"1397768046","GeoCluster":"112082993620","PostingID":"4399138009","url":"/jsonsearch/sss/?geocluster=112082993620&key=BtrZw2xfVcpzXKNihkl3Wg","Latitude":38.932482177045},{"Longitude":-77.665976,"PostingURL":"/nva/bab/4427055666.html","Ask":"10","ImageThumb":"http://images.craigslist.org/00101_jjq9GbU13Rl_50x50c.jpg","PostingID":"4427055666","CategoryID":"107","Latitude":38.74925,"PostingTitle":"Little Tikes Activity Desk","PostedDate":"1397743324"},{"Longitude":-77.548863,"PostingURL":"/nva/fuo/4427027744.html","Ask":"40","ImageThumb":"http://images.craigslist.org/00U0U_lsnJRY9quPU_50x50c.jpg","PostingID":"4427027744","CategoryID":"141","Latitude":38.93019,"PostingTitle":"student desk","PostedDate":"1397742083"},{"Longitude":-77.06374,"PostingURL":"/doc/fuo/4407198744.html","Ask":"90","ImageThumb":"http://images.craigslist.org/01515_auwIkXiQPgG_50x50c.jpg","PostingID":"4407198744","CategoryID":"141","Latitude":38.864013,"PostingTitle":"Wooden desk","PostedDate":"1397741060"},{"Longitude":-76.998709,"PostingURL":"/doc/fuo/4426996120.html","Ask":"25","ImageThumb":"http://images.craigslist.org/00303_iF5EI3Vvuq4_50x50c.jpg","PostingID":"4426996120","CategoryID":"141","Latitude":38.893119,"PostingTitle":"Chalkboard Desk","PostedDate":"1397740524"},{"Longitude":-77.081387,"PostingURL":"/nva/fuo/4426980564.html","Ask":"100","ImageThumb":"http://images.craigslist.org/00000_4kO5ESZhKPz_50x50c.jpg","PostingID":"4426980564","CategoryID":"141","Latitude":38.79119,"PostingTitle":"Glass desk - excellent condition","PostedDate":"1397739644"},{"Longitude":-77.0337744807384,"NumPosts":"2","PostedDate":"1397738680","GeoCluster":"112082999686","PostingID":"4426964920","url":"/jsonsearch/sss/?geocluster=112082999686&key=7GX6z0WAMhr5wA_jSWkzOA","Latitude":38.998200436143},{"Longitude":-77.21162,"PostingURL":"/nva/fuo/4418557976.html","Ask":"65","ImageThumb":"http://images.craigslist.org/00101_4MoBvms9TWs_50x50c.jpg","PostingID":"4418557976","CategoryID":"141","Latitude":38.802879,"PostingTitle":"COMPUTER DESK IN GREAT CONDITION","PostedDate":"1397735723"},{"Longitude":-76.8154775608053,"NumPosts":"2","PostedDate":"1397852352","GeoCluster":"112093019854","PostingID":"4429285585","url":"/jsonsearch/sss/?geocluster=112093019854&key=BTgmT1jNXEpuhMZzuoUnQw","Latitude":39.0957751486485},{"Longitude":-77.0832207384556,"NumPosts":"2","PostedDate":"1397741668","GeoCluster":"112092099126","PostingID":"4427018700","url":"/jsonsearch/sss/?geocluster=112092099126&key=obeaOy67qHVlstSm6t0u4Q","Latitude":39.0923374018779},{"Longitude":-77.009022,"PostingURL":"/doc/fuo/4426793696.html","Ask":"90","ImageThumb":"http://images.craigslist.org/00w0w_gmOQdRYv8YR_50x50c.jpg","PostingID":"4426793696","CategoryID":"141","Latitude":38.909621,"PostingTitle":"ikea office desk chair","PostedDate":"1397712394"},{"Longitude":-77.02856,"PostingURL":"/doc/fuo/4426753292.html","Ask":"50","ImageThumb":"http://images.craigslist.org/00L0L_h0y0WzNgr4y_50x50c.jpg","PostingID":"4426753292","CategoryID":"141","Latitude":38.942852,"PostingTitle":"IKEA white \"micke\" desk","PostedDate":"1397708525"},{"Longitude":-77.078465,"PostingURL":"/nva/fuo/4426484691.html","Ask":"50","ImageThumb":"http://images.craigslist.org/00C0C_ejbkT4IEyxE_50x50c.jpg","PostingID":"4426484691","CategoryID":"141","Latitude":38.89587,"PostingTitle":"TMS Wrap L-shaped Computer Desk, and more","PostedDate":"1397693292"},{"Longitude":-77.3419111829432,"NumPosts":"4","PostedDate":"1397925231","GeoCluster":"112082968508","PostingID":"4429197443","url":"/jsonsearch/sss/?geocluster=112082968508&key=5sAJJi2pA49nI_xWetrJMQ","Latitude":38.9807252233924},{"Longitude":-77.0297064803932,"NumPosts":"2","PostedDate":"1397700359","GeoCluster":"112082992730","PostingID":"4426621444","url":"/jsonsearch/sss/?geocluster=112082992730&key=ANKlncofKHWgbQwrVY_tEA","Latitude":38.9237732185595},{"Longitude":-77.741721132364,"NumPosts":"2","PostedDate":"1397770353","GeoCluster":"112082721558","PostingID":"4427837741","url":"/jsonsearch/sss/?geocluster=112082721558&key=fmOOMyf8BOMTle0b2Mgjog","Latitude":38.7152738769226},{"Longitude":-77.016184,"PostingURL":"/doc/fuo/4398302598.html","Ask":"20","ImageThumb":"http://images.craigslist.org/01111_8gIG5dDxOy0_50x50c.jpg","PostingID":"4398302598","CategoryID":"141","Latitude":38.903719,"PostingTitle":"LIKE NEW Writing desk","PostedDate":"1397701057"},{"Longitude":-77.119718,"PostingURL":"/nva/fuo/4426564146.html","Ask":"25","ImageThumb":"http://images.craigslist.org/00V0V_drJ4DcaVshD_50x50c.jpg","PostingID":"4426564146","CategoryID":"141","Latitude":38.812103,"PostingTitle":"Classic wooden teachers desk","PostedDate":"1397697009"},{"Longitude":-76.983526,"PostingURL":"/mld/fuo/4426402281.html","Ask":"100","ImageThumb":"http://images.craigslist.org/00D0D_hO0DK3fNGvK_50x50c.jpg","PostingID":"4426402281","CategoryID":"141","Latitude":38.758704,"PostingTitle":"Desk & Desk Chair","PostedDate":"1397689689"},{"Longitude":-77.3993788497917,"NumPosts":"9","PostedDate":"1397868894","GeoCluster":"112092062030","PostingID":"4429673153","url":"/jsonsearch/sss/?geocluster=112092062030&key=VYwhhUYPoCJT1Pd2FL-Slw","Latitude":39.0230095086708},{"Longitude":-77.425104,"PostingURL":"/nva/fuo/4426521667.html","Ask":"50","ImageThumb":"http://images.craigslist.org/00Q0Q_i3tdhE9PI2r_50x50c.jpg","PostingID":"4426521667","CategoryID":"141","Latitude":39.045068,"PostingTitle":"Brown Rolltop Desk","PostedDate":"1397694991"},{"Longitude":-77.1935724097918,"NumPosts":"2","PostedDate":"1397694822","GeoCluster":"112092186096","PostingID":"4426518044","url":"/jsonsearch/sss/?geocluster=112092186096&key=BL-DvjD2Qw_wmD_qfDu7CQ","Latitude":39.1695148168779},{"Longitude":-77.32329,"PostingURL":"/nva/fuo/4407601889.html","Ask":"15","ImageThumb":"http://images.craigslist.org/00c0c_6huJ1cywcIU_50x50c.jpg","PostingID":"4407601889","CategoryID":"141","Latitude":38.885213,"PostingTitle":"Made in Japan - writing desk with a chair","PostedDate":"1397690443"},{"Longitude":-77.003579,"PostingURL":"/doc/fuo/4420226570.html","Ask":"60","ImageThumb":"http://images.craigslist.org/01111_edseF0HuoPO_50x50c.jpg","PostingID":"4420226570","CategoryID":"141","Latitude":38.901313,"PostingTitle":"Black desk (IKEA)","PostedDate":"1397681098"},{"Longitude":-76.743514,"PostingURL":"/mld/fuo/4421715206.html","Ask":"100","ImageThumb":"http://images.craigslist.org/00e0e_g4RABUMzhJw_50x50c.jpg","PostingID":"4421715206","CategoryID":"141","Latitude":38.979693,"PostingTitle":"Shabby Chic Upholstered Desk/Accent Chair","PostedDate":"1397686168"},{"Longitude":-76.9940112097585,"NumPosts":"3","PostedDate":"1397915116","GeoCluster":"112083903066","PostingID":"4430132552","url":"/jsonsearch/sss/?geocluster=112083903066&key=4AxcwwEK9DVITq-2jJ-Eow","Latitude":38.9367220647287},{"Longitude":-77.621629178511,"NumPosts":"3","PostedDate":"1397676637","GeoCluster":"112082831758","PostingID":"4426049964","url":"/jsonsearch/sss/?geocluster=112082831758&key=EFMWonatRmHFEeJPb6yrPg","Latitude":38.8157133784036},{"Longitude":-77.269775,"PostingURL":"/nva/fuo/4418534665.html","Ask":"100","ImageThumb":"http://images.craigslist.org/01414_kbZ0m3OpmjY_50x50c.jpg","PostingID":"4418534665","CategoryID":"141","Latitude":38.867623,"PostingTitle":"Purple vintage looking Ikea Desk ISALA","PostedDate":"1397680277"},{"Longitude":-77.144126,"PostingURL":"/doc/fuo/4426144327.html","Ask":"75","ImageThumb":"http://images.craigslist.org/00u0u_eGxSi2DW9mS_50x50c.jpg","PostingID":"4426144327","CategoryID":"141","Latitude":38.904063,"PostingTitle":"Hardwood Desk","PostedDate":"1397679831"},{"Longitude":-77.05039,"PostingURL":"/doc/fuo/4393496786.html","Ask":"70","ImageThumb":"http://images.craigslist.org/00W0W_73qvOLjL4vz_50x50c.jpg","PostingID":"4393496786","CategoryID":"141","Latitude":38.901427,"PostingTitle":"Ikea suede leather desk chair","PostedDate":"1397679731"},{"Longitude":-77.2879958544243,"NumPosts":"3","PostedDate":"1397906302","GeoCluster":"112082879172","PostingID":"4430012030","url":"/jsonsearch/sss/?geocluster=112082879172&key=YvIa8j4f-f5kIdgRnubVZQ","Latitude":38.8977036388824},{"Longitude":-76.978999,"PostingURL":"/doc/fuo/4425999414.html","Ask":"40","ImageThumb":"http://images.craigslist.org/00e0e_6QZeEpuF9AO_50x50c.jpg","PostingID":"4425999414","CategoryID":"141","Latitude":38.887562,"PostingTitle":"Wood desk with hutch","PostedDate":"1397674974"},{"Longitude":-77.027013,"PostingURL":"/doc/fuo/4425794798.html","Ask":"100","ImageThumb":"http://images.craigslist.org/00h0h_iXlciKu1EN9_50x50c.jpg","PostingID":"4425794798","CategoryID":"141","Latitude":38.916038,"PostingTitle":"Office Desk w/ chair","PostedDate":"1397668595"},{"Longitude":-77.275906,"PostingURL":"/mld/fuo/4425748804.html","Ask":"100","ImageThumb":"http://images.craigslist.org/00M0M_59Br1zdcxb1_50x50c.jpg","PostingID":"4425748804","CategoryID":"141","Latitude":39.409584,"PostingTitle":"desk and chair","PostedDate":"1397667174"},{"Longitude":-77.191853,"PostingURL":"/mld/bfs/4425710909.html","Ask":"20","ImageThumb":"http://images.craigslist.org/00O0O_k2BdvqHZfrv_50x50c.jpg","PostingID":"4425710909","CategoryID":"134","Latitude":39.117776,"PostingTitle":"Mobile/Desk filing drawer unit - 6 available","PostedDate":"1397665994"},{"Longitude":-76.964904,"PostingURL":"/mld/sys/4414863494.html","Ask":"55","ImageThumb":"http://images.craigslist.org/00X0X_h8l6bfgI1nx_50x50c.jpg","PostingID":"4414863494","CategoryID":"7","Latitude":38.964682,"PostingTitle":"Dell Desk Top Computers 2G XP Operating System","PostedDate":"1397663796"},{"Longitude":-77.329993,"PostingURL":"/nva/fuo/4419922644.html","Ask":"25","ImageThumb":"http://images.craigslist.org/00B0B_5jqc2HrVMXT_50x50c.jpg","PostingID":"4419922644","CategoryID":"141","Latitude":38.854674,"PostingTitle":"Leather and sued love seats,  Dresser, Desk ","PostedDate":"1397659222"},{"Longitude":-77.035149,"PostingURL":"/doc/fuo/4425463895.html","Ask":"45","ImageThumb":"http://images.craigslist.org/00m0m_7RlOL5TBesv_50x50c.jpg","PostingID":"4425463895","CategoryID":"141","Latitude":38.935862,"PostingTitle":"Desk and architect lamp","PostedDate":"1397657760"},{"Longitude":-77.223652,"PostingURL":"/mld/fuo/4396780075.html","Ask":"30","ImageThumb":"http://images.craigslist.org/01414_dXoHTjmGQjg_50x50c.jpg","PostingID":"4396780075","CategoryID":"141","Latitude":39.142184,"PostingTitle":"Computer table desk student White color Like brand New No scratch","PostedDate":"1397657572"},{"Longitude":-77.308278,"PostingURL":"/nva/fuo/4425357791.html","Ask":"80","ImageThumb":"http://images.craigslist.org/00F0F_5AuFM6RIlgZ_50x50c.jpg","PostingID":"4425357791","CategoryID":"141","Latitude":39.003872,"PostingTitle":"Desk with bookshelves","PostedDate":"1397652959"},{"Longitude":-76.988625,"PostingURL":"/mld/fuo/4417102001.html","Ask":"60","ImageThumb":"http://images.craigslist.org/00808_fuJQ9dXhRBQ_50x50c.jpg","PostingID":"4417102001","CategoryID":"141","Latitude":38.979808,"PostingTitle":"Retro Shabby Chic School Desk","PostedDate":"1397657156"},{"Longitude":-77.040363,"PostingURL":"/nva/fuo/4425424224.html","Ask":"75","ImageThumb":"http://images.craigslist.org/00u0u_c1CfOPWTaGh_50x50c.jpg","PostingID":"4425424224","CategoryID":"141","Latitude":38.809296,"PostingTitle":"Rolling Shelf/Desk","PostedDate":"1397656152"},{"Longitude":-77.408832,"PostingURL":"/nva/fuo/4416480165.html","Ask":"50","ImageThumb":"http://images.craigslist.org/00p0p_frhu8uYERoW_50x50c.jpg","PostingID":"4416480165","CategoryID":"141","Latitude":39.039625,"PostingTitle":"Small wooden desk","PostedDate":"1397642995"},{"Longitude":-77.050103,"PostingURL":"/doc/fuo/4425129161.html","Ask":"70","ImageThumb":"http://images.craigslist.org/00E0E_69L88deYxUa_50x50c.jpg","PostingID":"4425129161","CategoryID":"141","Latitude":38.902516,"PostingTitle":"Desk - Workstation/Computer Desk","PostedDate":"1397621896"},{"Longitude":-77.695712,"PostingURL":"/mld/fuo/4425036181.html","Ask":"75","ImageThumb":"http://images.craigslist.org/00s0s_5QLhACzZ5Ri_50x50c.jpg","PostingID":"4425036181","CategoryID":"141","Latitude":39.552021,"PostingTitle":"office desk","PostedDate":"1397615546"},{"Longitude":-77.338874,"PostingURL":"/nva/fuo/4425023219.html","Ask":"50","ImageThumb":"http://images.craigslist.org/00202_dcDB5dkhemY_50x50c.jpg","PostingID":"4425023219","CategoryID":"141","Latitude":38.982043,"PostingTitle":"Small Desk","PostedDate":"1397614820"},{"Longitude":-77.081272,"PostingURL":"/doc/fuo/4424991651.html","Ask":"60","ImageThumb":"http://images.craigslist.org/00m0m_3lGwhEzqjR1_50x50c.jpg","PostingID":"4424991651","CategoryID":"141","Latitude":38.919476,"PostingTitle":"Ikea desk for sale","PostedDate":"1397613148"},{"Longitude":-77.2294968635446,"NumPosts":"3","PostedDate":"1397698600","GeoCluster":"112082975730","PostingID":"4426595749","url":"/jsonsearch/sss/?geocluster=112082975730&key=-R18AkzeG_2ZPX-zkAitzQ","Latitude":38.9529940661096},{"Longitude":-77.106597,"PostingURL":"/nva/fuo/4424832680.html","Ask":"75","ImageThumb":"http://images.craigslist.org/00404_2mDIQQXz7ZB_50x50c.jpg","PostingID":"4424832680","CategoryID":"141","Latitude":38.882119,"PostingTitle":"White Desk with Chair","PostedDate":"1397605788"},{"Longitude":-77.1921973110836,"NumPosts":"5","PostedDate":"1397906442","GeoCluster":"112092083087","PostingID":"4430013097","url":"/jsonsearch/sss/?geocluster=112092083087&key=ZWCpYOP5yLTXezK2py8x8A","Latitude":39.0388231438156},{"Longitude":-77.080241,"PostingURL":"/doc/fuo/4424777161.html","Ask":"45","ImageThumb":"http://images.craigslist.org/00t0t_fRe9XUMRZxs_50x50c.jpg","PostingID":"4424777161","CategoryID":"141","Latitude":38.947837,"PostingTitle":"Modern desk","PostedDate":"1397603475"},{"Longitude":-77.110264,"PostingURL":"/mld/atq/4394465164.html","Ask":"40","ImageThumb":"http://images.craigslist.org/01414_hcvVcZ1Wyz_50x50c.jpg","PostingID":"4394465164","CategoryID":"150","Latitude":39.052344,"PostingTitle":"Antique Childs School Desk","PostedDate":"1397595606"},{"Longitude":-77.414046,"PostingURL":"/nva/fuo/4397210664.html","Ask":"100","ImageThumb":"http://images.craigslist.org/00J0J_6OIIXw7kmvD_50x50c.jpg","PostingID":"4397210664","CategoryID":"141","Latitude":38.629731,"PostingTitle":"Desk with right return","PostedDate":"1397590063"},{"Longitude":-77.6054144729097,"NumPosts":"4","PostedDate":"1397826722","GeoCluster":"112092034924","PostingID":"4428547108","url":"/jsonsearch/sss/?geocluster=112092034924&key=5XaD6vSQp45dqSBQiu0-iQ","Latitude":39.0419744116886},{"Longitude":-77.362537,"PostingURL":"/nva/fuo/4424368483.html","Ask":"100","ImageThumb":"http://images.craigslist.org/00505_6XP7qk1gltJ_50x50c.jpg","PostingID":"4424368483","CategoryID":"141","Latitude":38.885041,"PostingTitle":"Solid Oak Roll-Top Desk","PostedDate":"1397588911"},{"Longitude":-74.399944,"PostingURL":"/nva/for/4424485707.html","Ask":"20","ImageThumb":"http://images.craigslist.org/00T0T_5EYHZOWl96Y_50x50c.jpg","PostingID":"4424485707","CategoryID":"5","Latitude":32.938541,"PostingTitle":"Small desk","PostedDate":"1397592746"},{"Longitude":-77.1448137014288,"NumPosts":"6","PostedDate":"1397926098","GeoCluster":"112082885505","PostingID":"4430421024","url":"/jsonsearch/sss/?geocluster=112082885505&key=-STTxKXEy0qBlL7fMvCvNw","Latitude":38.8502054376686},{"Longitude":-77.023633,"PostingURL":"/mld/fuo/4424171931.html","Ask":"50","ImageThumb":"http://images.craigslist.org/00f0f_8q6UjqOihG2_50x50c.jpg","PostingID":"4424171931","CategoryID":"141","Latitude":39.033437,"PostingTitle":"Beautiful Solid Wood Desk - Bargain Basement Price! ","PostedDate":"1397582871"},{"Longitude":-77.156616,"PostingURL":"/mld/fud/4424406693.html","Ask":"100","ImageThumb":"http://images.craigslist.org/01313_87d1s75i3sc_50x50c.jpg","PostingID":"4424406693","CategoryID":"142","Latitude":39.104312,"PostingTitle":"Cute Rattan Desk And Chair","PostedDate":"1397590142"},{"Longitude":-76.976192,"PostingURL":"/doc/fuo/4424114802.html","Ask":"100","ImageThumb":"http://images.craigslist.org/01414_aDb5W3RqJyN_50x50c.jpg","PostingID":"4424114802","CategoryID":"141","Latitude":38.927726,"PostingTitle":"Custom computer desk with rackmount space","PostedDate":"1397581122"},{"Longitude":-77.250524,"PostingURL":"/nva/fuo/4424132851.html","Ask":"25","ImageThumb":"http://images.craigslist.org/00i0i_6GcqXFcogOs_50x50c.jpg","PostingID":"4424132851","CategoryID":"141","Latitude":38.868196,"PostingTitle":"Desk Chair","PostedDate":"1397581684"},{"Longitude":-77.5359146923641,"NumPosts":"5","PostedDate":"1397746641","GeoCluster":"112092148624","PostingID":"4424901500","url":"/jsonsearch/sss/?geocluster=112092148624&key=3nVMDOhHFCaeKhHxLXpfpw","Latitude":39.1821198883701},{"Longitude":-77.1895044094466,"NumPosts":"4","PostedDate":"1397936017","GeoCluster":"112082889190","PostingID":"4430697736","url":"/jsonsearch/sss/?geocluster=112082889190&key=43Cez9FVueLK1Kq88gkuwQ","Latitude":38.8994225122677},{"Longitude":-77.126937,"PostingURL":"/nva/fuo/4423911537.html","Ask":"75","ImageThumb":"http://images.craigslist.org/00B0B_9USlYuH0vQ4_50x50c.jpg","PostingID":"4423911537","CategoryID":"141","Latitude":38.824995,"PostingTitle":"Dresser, desk, nightstand ","PostedDate":"1397574796"},{"Longitude":-77.0931902040903,"NumPosts":"8","PostedDate":"1397936754","GeoCluster":"112082898076","PostingID":"4430269595","url":"/jsonsearch/sss/?geocluster=112082898076&key=w4W8I-yQgHlViaLdTooPqg","Latitude":38.8871039196731},{"Longitude":-77.0005429286226,"NumPosts":"2","PostedDate":"1397852672","GeoCluster":"112082899979","PostingID":"4429294437","url":"/jsonsearch/sss/?geocluster=112082899979&key=Xa8XtKuiR3QMReh3RSFufQ","Latitude":38.8973598642054},{"Longitude":-77.158335,"PostingURL":"/mld/fuo/4423819920.html","Ask":"20","ImageThumb":"http://images.craigslist.org/00g0g_1Pu5wVexnxk_50x50c.jpg","PostingID":"4423819920","CategoryID":"141","Latitude":39.184927,"PostingTitle":"GREAT BUY-Large Desk with HUTCH","PostedDate":"1397571515"},{"Longitude":-77.48177,"PostingURL":"/nva/hsh/4408508991.html","Ask":"10","ImageThumb":"http://images.craigslist.org/00X0X_indroZJzR5S_50x50c.jpg","PostingID":"4408508991","CategoryID":"97","Latitude":38.833131,"PostingTitle":"white desk organizer","PostedDate":"1397574864"},{"Longitude":-77.233335,"PostingURL":"/nva/fuo/4378016892.html","Ask":"75","ImageThumb":"http://images.craigslist.org/00u0u_jgKE8gVNqwX_50x50c.jpg","PostingID":"4378016892","CategoryID":"141","Latitude":38.880171,"PostingTitle":"Antique School Desk","PostedDate":"1397572454"},{"Longitude":-77.306387799647,"NumPosts":"4","PostedDate":"1397774930","GeoCluster":"112082766903","PostingID":"4427949568","url":"/jsonsearch/sss/?geocluster=112082766903&key=cvR5IDs7iOkrfMz2E66w2A","Latitude":38.7601937680584},{"Longitude":-77.0345766216516,"NumPosts":"4","PostedDate":"1397605329","GeoCluster":"112082990695","PostingID":"4424821816","url":"/jsonsearch/sss/?geocluster=112082990695&key=BSfDbm7hUVAM1BPDHeAFcA","Latitude":38.9096211610205},{"Longitude":-77.216605,"PostingURL":"/mld/wan/4423738312.html","Ask":"55","ImageThumb":"http://images.craigslist.org/00R0R_aw1YaFeNhd4_50x50c.jpg","PostingID":"4423738312","CategoryID":"20","Latitude":39.112333,"PostingTitle":"solid cherry wood desk","PostedDate":"1397568018"},{"Longitude":-77.135245,"PostingURL":"/mld/pts/4423632981.html","Ask":"70","PostingID":"4423632981","CategoryID":"122","Latitude":39.124193,"PostingTitle":"Child's roll-top desk with chair ","PostedDate":"1397559579"},{"Longitude":-77.451403,"PostingURL":"/nva/fuo/4423443895.html","Ask":"25","ImageThumb":"http://images.craigslist.org/00P0P_2rAB8uJhIYo_50x50c.jpg","PostingID":"4423443895","CategoryID":"141","Latitude":38.740025,"PostingTitle":"WOOD DESK    ","PostedDate":"1397532411"},{"Longitude":-77.0612764549032,"NumPosts":"6","PostedDate":"1397870299","GeoCluster":"112092098348","PostingID":"4428624865","url":"/jsonsearch/sss/?geocluster=112092098348&key=L2Wyi3JZWnrlK3WmwjnQ7Q","Latitude":39.0839722180694},{"Longitude":-76.637516,"PostingURL":"/mld/fuo/4423289897.html","Ask":"25","ImageThumb":"http://images.craigslist.org/00Y0Y_dFAtYWGwsxz_50x50c.jpg","PostingID":"4423289897","CategoryID":"141","Latitude":38.937409,"PostingTitle":"Real Wood Desk","PostedDate":"1397524112"},{"Longitude":-77.0326858609277,"NumPosts":"2","PostedDate":"1397606149","GeoCluster":"112082993617","PostingID":"4424841372","url":"/jsonsearch/sss/?geocluster=112082993617&key=BwXu5e3PZ_8oiHvEdL1eEQ","Latitude":38.9313362614548},{"Longitude":-77.1142177551705,"NumPosts":"4","PostedDate":"1397918435","GeoCluster":"112082887835","PostingID":"4430208898","url":"/jsonsearch/sss/?geocluster=112082887835&key=Q0NrVDNi_LAM96rfJhhL-A","Latitude":38.8738112988268},{"Longitude":-77.4805096735779,"NumPosts":"9","PostedDate":"1397939310","GeoCluster":"112092053179","PostingID":"4430782348","url":"/jsonsearch/sss/?geocluster=112092053179&key=6QSszGLNhvyBGfm3aBpBVQ","Latitude":39.0372761577688},{"Longitude":-77.032456,"PostingURL":"/doc/fuo/4419340224.html","Ask":"30","ImageThumb":"http://images.craigslist.org/00505_5bbRjNNHlzO_50x50c.jpg","PostingID":"4419340224","CategoryID":"141","Latitude":38.921653,"PostingTitle":"GLASS DESK WITH SLIDEOUT KEYBOARD DRAWER","PostedDate":"1397518439"},{"Longitude":-76.9901150967518,"NumPosts":"5","PostedDate":"1397923766","GeoCluster":"112083900029","PostingID":"4430353711","url":"/jsonsearch/sss/?geocluster=112083900029&key=S7YddMKH5XgNAokWNpMoCA","Latitude":38.9024018928023},{"Longitude":-77.107571,"PostingURL":"/nva/fuo/4423066840.html","Ask":"80","ImageThumb":"http://images.craigslist.org/00606_6UjqPlGWEYA_50x50c.jpg","PostingID":"4423066840","CategoryID":"141","Latitude":38.880858,"PostingTitle":"Moving out--armchairs, footstool, side table, desk chair, floor lamps","PostedDate":"1397514752"},{"Longitude":-76.9300118240458,"NumPosts":"2","PostedDate":"1397513974","GeoCluster":"112093105609","PostingID":"4423029900","url":"/jsonsearch/sss/?geocluster=112093105609&key=YcfrrIMi0ZR5_nCmGE0vaQ","Latitude":39.150206139183},{"Longitude":-77.227376,"PostingURL":"/nva/fuo/4422880693.html","Ask":"50","ImageThumb":"http://images.craigslist.org/00D0D_gunwRXdhI9c_50x50c.jpg","PostingID":"4422880693","CategoryID":"141","Latitude":38.861206,"PostingTitle":"Computer Desk for sale","PostedDate":"1397508018"},{"Longitude":-77.3832214399699,"NumPosts":"4","PostedDate":"1397591136","GeoCluster":"112092364156","PostingID":"4424437012","url":"/jsonsearch/sss/?geocluster=112092364156&key=7wXZ_gBVMMg4tvvfLBq6-Q","Latitude":39.3455274515326},{"Longitude":-77.633031,"PostingURL":"/nva/fuo/4422867161.html","Ask":"50","ImageThumb":"http://images.craigslist.org/00303_3g3y60rPUg4_50x50c.jpg","PostingID":"4422867161","CategoryID":"141","Latitude":38.806546,"PostingTitle":"L Shaped Desk For Sale","PostedDate":"1397507564"},{"Longitude":-77.229897,"PostingURL":"/nva/hsh/4422779698.html","Ask":"55","ImageThumb":"http://images.craigslist.org/00P0P_jOu8qv8JrNq_50x50c.jpg","PostingID":"4422779698","CategoryID":"97","Latitude":38.86132,"PostingTitle":"MICKE IKEA DESK + Hutch (3 pieces)","PostedDate":"1397504694"},{"Longitude":-77.128942,"PostingURL":"/nva/fuo/4422870576.html","Ask":"79","ImageThumb":"http://images.craigslist.org/00A0A_6Ivr6aFxgfC_50x50c.jpg","PostingID":"4422870576","CategoryID":"141","Latitude":38.806603,"PostingTitle":"Espresso Wood Multi-Purp Desk/Table","PostedDate":"1397507679"},{"Longitude":-77.3526827894911,"NumPosts":"2","PostedDate":"1397696481","GeoCluster":"112082963417","PostingID":"4426548387","url":"/jsonsearch/sss/?geocluster=112082963417&key=M83v__o8RDrPlmxx4q8mUg","Latitude":38.9317946276909},{"Longitude":-77.386601890961,"NumPosts":"2","PostedDate":"1397745689","GeoCluster":"112092064173","PostingID":"4427115151","url":"/jsonsearch/sss/?geocluster=112092064173&key=fWqN4HGDmJUvah8AMKBzUw","Latitude":39.047188327624},{"Longitude":-77.0592138068409,"NumPosts":"2","PostedDate":"1397501000","GeoCluster":"112082895460","PostingID":"4422661808","url":"/jsonsearch/sss/?geocluster=112082895460&key=K3h95W5dFLpzOziAjXrv9Q","Latitude":38.8565079734147},{"Longitude":-77.184462,"PostingURL":"/mld/fuo/4422668508.html","Ask":"10","ImageThumb":"http://images.craigslist.org/00F0F_7DjaouN8y4u_50x50c.jpg","PostingID":"4422668508","CategoryID":"141","Latitude":39.118063,"PostingTitle":"Caramel-colored children's small desk","PostedDate":"1397501205"},{"Longitude":-77.6038101910834,"NumPosts":"2","PostedDate":"1397663665","GeoCluster":"112082935976","PostingID":"4425636078","url":"/jsonsearch/sss/?geocluster=112082935976&key=qemGB1_Q1GYJakXFYbP4CQ","Latitude":38.9576923200294},{"Longitude":-77.629593,"PostingURL":"/nva/fuo/4422652330.html","Ask":"30","ImageThumb":"http://images.craigslist.org/00w0w_8bACHdO8CZ7_50x50c.jpg","PostingID":"4422652330","CategoryID":"141","Latitude":38.865904,"PostingTitle":"Large Solid Wood Antique Desk","PostedDate":"1397500709"},{"Longitude":-77.081673,"PostingURL":"/nva/fuo/4417866575.html","Ask":"95","ImageThumb":"http://images.craigslist.org/00h0h_bKfR5rBYlvk_50x50c.jpg","PostingID":"4417866575","CategoryID":"141","Latitude":38.889567,"PostingTitle":"Ikea Malm 6-drawer chest with mirror & desk like new (black-brown)","PostedDate":"1397498575"},{"Longitude":-77.1204056993575,"NumPosts":"3","PostedDate":"1397771207","GeoCluster":"112092084799","PostingID":"4427859254","url":"/jsonsearch/sss/?geocluster=112092084799&key=imVrqgVxCIoyhVPZavyj2w","Latitude":39.0495947503634},{"Longitude":-77.0311961706605,"NumPosts":"7","PostedDate":"1397858191","GeoCluster":"112082990668","PostingID":"4423765800","url":"/jsonsearch/sss/?geocluster=112082990668&key=pygvIFT5C-D3o8uGmcB90Q","Latitude":38.9066990762655},{"Longitude":-77.078006,"PostingURL":"/mld/fuo/4422500624.html","Ask":"40","ImageThumb":"http://images.craigslist.org/01010_gjFP2OHj23x_50x50c.jpg","PostingID":"4422500624","CategoryID":"141","Latitude":38.968234,"PostingTitle":"small white wooden desk","PostedDate":"1397496122"},{"Longitude":-77.836087,"PostingURL":"/nva/fuo/4422273495.html","Ask":"50","ImageThumb":"http://images.craigslist.org/00n0n_lf8kzjUG97m_50x50c.jpg","PostingID":"4422273495","CategoryID":"141","Latitude":38.689777,"PostingTitle":"Contemporary desk for sale","PostedDate":"1397489241"},{"Longitude":-77.270921,"PostingURL":"/nva/hsh/4408575157.html","Ask":"10","ImageThumb":"http://images.craigslist.org/00d0d_8RX5Xfx1UwS_50x50c.jpg","PostingID":"4408575157","CategoryID":"97","Latitude":38.603432,"PostingTitle":"computer desk","PostedDate":"1397492971"},{"Longitude":-77.0328,"PostingURL":"/doc/fuo/4377997464.html","Ask":"75","ImageThumb":"http://images.craigslist.org/01717_84HselM6jEy_50x50c.jpg","PostingID":"4377997464","CategoryID":"141","Latitude":38.923658,"PostingTitle":"Lovely office desk","PostedDate":"1397492188"},{"Longitude":-76.9814061382663,"NumPosts":"2","PostedDate":"1397492308","GeoCluster":"112093405198","PostingID":"4422343593","url":"/jsonsearch/sss/?geocluster=112093405198&key=r5wKsbcfzzubEoh3hcLggw","Latitude":39.4596606443165},{"Longitude":-77.367465,"PostingURL":"/nva/hsh/4422191373.html","Ask":"75","ImageThumb":"http://images.craigslist.org/00S0S_9MaZAIQkk6f_50x50c.jpg","PostingID":"4422191373","CategoryID":"97","Latitude":38.828891,"PostingTitle":"Computer Desk","PostedDate":"1397486510"},{"Longitude":-77.084825,"PostingURL":"/doc/fuo/4422297555.html","Ask":"40","ImageThumb":"http://images.craigslist.org/00g0g_7b8lkW4R1uk_50x50c.jpg","PostingID":"4422297555","CategoryID":"141","Latitude":38.912084,"PostingTitle":"white ikea desk","PostedDate":"1397490000"},{"Longitude":-76.746493,"PostingURL":"/mld/fuo/4422035602.html","Ask":"50","ImageThumb":"http://images.craigslist.org/00H0H_cwN4528CMgq_50x50c.jpg","PostingID":"4422035602","CategoryID":"141","Latitude":38.968578,"PostingTitle":"Wide computer oak desk for sale","PostedDate":"1397479522"},{"Longitude":-77.200447,"PostingURL":"/nva/fuo/4422110359.html","Ask":"90","ImageThumb":"http://images.craigslist.org/00000_dMLPwPDCQuv_50x50c.jpg","PostingID":"4422110359","CategoryID":"141","Latitude":38.871404,"PostingTitle":"Solid Wood Desk","PostedDate":"1397483387"},{"Longitude":-77.027758,"PostingURL":"/doc/fuo/4403673417.html","Ask":"70","ImageThumb":"http://images.craigslist.org/00202_2qGNt0qc7FR_50x50c.jpg","PostingID":"4403673417","CategoryID":"141","Latitude":38.906068,"PostingTitle":"Moving Sale: Large Oak Coffee Table (also Ikea Bed, Desk, Dresser)","PostedDate":"1397482815"},{"Longitude":-77.600028,"PostingURL":"/nva/fuo/4422069268.html","Ask":"20","ImageThumb":"http://images.craigslist.org/00M0M_apfOCorpOPK_50x50c.jpg","PostingID":"4422069268","CategoryID":"141","Latitude":38.781908,"PostingTitle":"Desk","PostedDate":"1397481463"},{"Longitude":-76.834499,"PostingURL":"/mld/fuo/4422060903.html","Ask":"20","ImageThumb":"http://images.craigslist.org/00h0h_6guLo7dyBY4_50x50c.jpg","PostingID":"4422060903","CategoryID":"141","Latitude":39.049881,"PostingTitle":"Desk","PostedDate":"1397481021"},{"Longitude":-77.5473738482661,"NumPosts":"2","PostedDate":"1397514569","GeoCluster":"112082743542","PostingID":"4423062142","url":"/jsonsearch/sss/?geocluster=112082743542&key=sfoZMU2kZ9qOiaiQKlCO2w","Latitude":38.7342960757199},{"Longitude":-77.2126519043687,"NumPosts":"3","PostedDate":"1397439031","GeoCluster":"112082774877","PostingID":"4421656483","url":"/jsonsearch/sss/?geocluster=112082774877&key=fpbIY5nn8t8qF2fKUDZ6Hg","Latitude":38.7471876261097},{"Longitude":-77.097716,"PostingURL":"/mld/fuo/4417248403.html","Ask":"10","ImageThumb":"http://images.craigslist.org/00M0M_bgT4dEansZR_50x50c.jpg","PostingID":"4417248403","CategoryID":"141","Latitude":39.044667,"PostingTitle":"Computer desk and two bookshelves/bookcases","PostedDate":"1397436137"},{"Longitude":-77.136047,"PostingURL":"/nva/fuo/4421722790.html","Ask":"20","ImageThumb":"http://images.craigslist.org/00o0o_kojD4ZC1R0P_50x50c.jpg","PostingID":"4421722790","CategoryID":"141","Latitude":38.819151,"PostingTitle":"Moving sale - Large desk available ","PostedDate":"1397441925"},{"Longitude":-77.11565,"PostingURL":"/nva/fuo/4405930595.html","Ask":"80","ImageThumb":"http://images.craigslist.org/01010_iVAJ1rl9PRB_50x50c.jpg","PostingID":"4405930595","CategoryID":"141","Latitude":38.774689,"PostingTitle":"Desk / Chair / Book Shelf Set","PostedDate":"1397433637"},{"Longitude":-77.3790388480657,"NumPosts":"2","PostedDate":"1397436309","GeoCluster":"112082969200","PostingID":"4421615172","url":"/jsonsearch/sss/?geocluster=112082969200&key=IQAYkYmiPf9JJxVYLcBGgg","Latitude":38.9908092805862},{"Longitude":-77.262957,"PostingURL":"/nva/fuo/4421431640.html","Ask":"35","ImageThumb":"http://images.craigslist.org/00t0t_9dvDStBrvO1_50x50c.jpg","PostingID":"4421431640","CategoryID":"141","Latitude":38.609219,"PostingTitle":"Desk with chair","PostedDate":"1397427734"},{"Longitude":-77.005355,"PostingURL":"/mld/fuo/4421394002.html","Ask":"85","ImageThumb":"http://images.craigslist.org/00v0v_lSk1FXE3nlB_50x50c.jpg","PostingID":"4421394002","CategoryID":"141","Latitude":39.01092,"PostingTitle":"Linnarp IKEA desk w Anthropologie Knobs","PostedDate":"1397426072"},{"Longitude":-77.159538,"PostingURL":"/nva/fuo/4421343190.html","Ask":"40","ImageThumb":"http://images.craigslist.org/00q0q_gdmi0sIkftZ_50x50c.jpg","PostingID":"4421343190","CategoryID":"141","Latitude":38.708971,"PostingTitle":"Antique Swivel Desk Chair w/ Alum Base and Black Vinyl","PostedDate":"1397423876"},{"Longitude":-77.156616,"PostingURL":"/nva/fuo/4421208919.html","Ask":"30","ImageThumb":"http://images.craigslist.org/01414_bYFDBmhnQgr_50x50c.jpg","PostingID":"4421208919","CategoryID":"141","Latitude":38.885327,"PostingTitle":"Large office desk & chair","PostedDate":"1397418347"},{"Longitude":-77.005642,"PostingURL":"/doc/fuo/4417205293.html","Ask":"100","ImageThumb":"http://images.craigslist.org/00S0S_iDJHlT0aolg_50x50c.jpg","PostingID":"4417205293","CategoryID":"141","Latitude":38.91111,"PostingTitle":"Modern desk available","PostedDate":"1397420215"},{"Longitude":-77.405624,"PostingURL":"/nva/fuo/4421100923.html","Ask":"60","ImageThumb":"http://images.craigslist.org/00f0f_imhhMyg8Xrv_50x50c.jpg","PostingID":"4421100923","CategoryID":"141","Latitude":38.884239,"PostingTitle":"Computer Desk","PostedDate":"1397414170"},{"Longitude":-77.1484233355379,"NumPosts":"6","PostedDate":"1397919133","GeoCluster":"112082881591","PostingID":"4425591818","url":"/jsonsearch/sss/?geocluster=112082881591&key=OnDQnXB3s5odqAPFa7OdTQ","Latitude":38.8190938293947},{"Longitude":-77.629994,"PostingURL":"/nva/fuo/4421168334.html","Ask":"35","ImageThumb":"http://images.craigslist.org/01717_jrDaYygjPGL_50x50c.jpg","PostingID":"4421168334","CategoryID":"141","Latitude":39.188193,"PostingTitle":"Vintage Child's School Desk","PostedDate":"1397416759"},{"Longitude":-77.053426,"PostingURL":"/nva/fuo/4421080739.html","Ask":"70","ImageThumb":"http://images.craigslist.org/00S0S_in8umriVMDq_50x50c.jpg","PostingID":"4421080739","CategoryID":"141","Latitude":38.858627,"PostingTitle":"Office desk + chair","PostedDate":"1397413396"},{"Longitude":-77.071761,"PostingURL":"/doc/fuo/4420901207.html","Ask":"60","ImageThumb":"http://images.craigslist.org/00C0C_kKqkTBiy2lC_50x50c.jpg","PostingID":"4420901207","CategoryID":"141","Latitude":38.958379,"PostingTitle":"Pretty Ikea Desk and Printer Stand in Birch","PostedDate":"1397406409"},{"Longitude":-76.967254,"PostingURL":"/doc/fuo/4421070705.html","Ask":"50","ImageThumb":"http://images.craigslist.org/00N0N_5Ea9Oouvxqk_50x50c.jpg","PostingID":"4421070705","CategoryID":"141","Latitude":38.856909,"PostingTitle":"Ikea Desk","PostedDate":"1397413009"},{"Longitude":-77.0997219229544,"NumPosts":"5","PostedDate":"1397935409","GeoCluster":"112082895090","PostingID":"4430681873","url":"/jsonsearch/sss/?geocluster=112082895090&key=LA6KB_EBWezh7hfoE89ksQ","Latitude":38.8589716919337},{"Longitude":-77.0443741999478,"NumPosts":"2","PostedDate":"1397845934","GeoCluster":"112092094505","PostingID":"4429097179","url":"/jsonsearch/sss/?geocluster=112092094505&key=W9vPxC387eqJwW9pbf7MIA","Latitude":39.0400263551853},{"Longitude":-77.008736,"PostingURL":"/mld/for/4420830235.html","Ask":"15","ImageThumb":"http://images.craigslist.org/00202_70rln3bdCrc_50x50c.jpg","PostingID":"4420830235","CategoryID":"5","Latitude":39.080935,"PostingTitle":"Desk light","PostedDate":"1397403533"},{"Longitude":-77.209099,"PostingURL":"/nva/fuo/4420755237.html","Ask":"30","ImageThumb":"http://images.craigslist.org/00V0V_8KAbUdGKuwL_50x50c.jpg","PostingID":"4420755237","CategoryID":"141","Latitude":38.735499,"PostingTitle":"Ikea Computer Desk and Chair","PostedDate":"1397400183"},{"Longitude":-77.005642,"PostingURL":"/mld/fuo/4420620065.html","Ask":"45","ImageThumb":"http://images.craigslist.org/00x0x_ivAxF2BEsSr_50x50c.jpg","PostingID":"4420620065","CategoryID":"141","Latitude":39.12511,"PostingTitle":"OFFICE DESK ","PostedDate":"1397391282"},{"Longitude":-77.0064443939122,"NumPosts":"2","PostedDate":"1397391372","GeoCluster":"112092192953","PostingID":"4420620968","url":"/jsonsearch/sss/?geocluster=112092192953&key=5I9EBlMWpB8lziBMoR3T4w","Latitude":39.1249959961986},{"Longitude":-77.271666,"PostingURL":"/nva/fuo/4420630395.html","Ask":"85","ImageThumb":"http://images.craigslist.org/00B0B_iEGgB3i2Qo2_50x50c.jpg","PostingID":"4420630395","CategoryID":"141","Latitude":38.873811,"PostingTitle":"Computer Desk with Chair, Espresso","PostedDate":"1397392299"},{"Longitude":-77.103159,"PostingURL":"/nva/fuo/4420667382.html","Ask":"50","ImageThumb":"http://images.craigslist.org/00A0A_4pub4VQq0Rs_50x50c.jpg","PostingID":"4420667382","CategoryID":"141","Latitude":38.882634,"PostingTitle":"Needs to go fast - table & chairs, desk, bookcase","PostedDate":"1397395204"},{"Longitude":-77.330738,"PostingURL":"/nva/fuo/4420486647.html","Ask":"10","ImageThumb":"http://images.craigslist.org/00M0M_3GrT6Wo6gqy_50x50c.jpg","PostingID":"4420486647","CategoryID":"141","Latitude":38.849575,"PostingTitle":"Sofa, Executive style Desk and Bookshelves, Lamps, Fitness, Etc. ","PostedDate":"1397366160"},{"Longitude":-77.3349783936225,"NumPosts":"2","PostedDate":"1397408106","GeoCluster":"112092464665","PostingID":"4420944042","url":"/jsonsearch/sss/?geocluster=112092464665&key=-KPX6VNCWwLNr13WRoHbDg","Latitude":39.4460815445726},{"Longitude":-77.373366,"PostingURL":"/nva/fuo/4420170533.html","Ask":"20","ImageThumb":"http://images.craigslist.org/00f0f_eOvicLjIIsz_50x50c.jpg","PostingID":"4420170533","CategoryID":"141","Latitude":38.858685,"PostingTitle":"Computer Desk Chair","PostedDate":"1397344357"},{"Longitude":-77.097029,"PostingURL":"/mld/fuo/4419998068.html","Ask":"40","ImageThumb":"http://images.craigslist.org/00101_hA9E9qChSBs_50x50c.jpg","PostingID":"4419998068","CategoryID":"141","Latitude":38.992642,"PostingTitle":"Ikea desk chair ","PostedDate":"1397336611"},{"Longitude":-77.176956,"PostingURL":"/nva/fuo/4419945815.html","Ask":"35","ImageThumb":"http://images.craigslist.org/00I0I_aobyBbidU2X_50x50c.jpg","PostingID":"4419945815","CategoryID":"141","Latitude":38.960213,"PostingTitle":"Heavy duty desk","PostedDate":"1397334553"},{"Longitude":-77.5285235368073,"NumPosts":"4","PostedDate":"1397870490","GeoCluster":"112092041741","PostingID":"4429701115","url":"/jsonsearch/sss/?geocluster=112092041741&key=jV9ap3JuEDqKzl5TaUtTsA","Latitude":39.0141859586263},{"Longitude":-77.177414,"PostingURL":"/nva/fuo/4419933746.html","Ask":"25","ImageThumb":"http://images.craigslist.org/00P0P_2o4rCYQN49D_50x50c.jpg","PostingID":"4419933746","CategoryID":"141","Latitude":38.960041,"PostingTitle":"Wooden desk with 3 drawers","PostedDate":"1397334094"},{"Longitude":-77.064026,"PostingURL":"/nva/bab/4419933750.html","Ask":"35","ImageThumb":"http://images.craigslist.org/00u0u_jjSZDkLsGKb_50x50c.jpg","PostingID":"4419933750","CategoryID":"107","Latitude":38.837199,"PostingTitle":"Antique highchair & child desk","PostedDate":"1397334094"},{"Longitude":-76.8551262402263,"NumPosts":"2","PostedDate":"1397500751","GeoCluster":"112083916474","PostingID":"4422642015","url":"/jsonsearch/sss/?geocluster=112083916474&key=ejL1Xxza4XLklnAoxMMRRg","Latitude":38.9674898983256},{"Longitude":-77.27115,"PostingURL":"/nva/fuo/4415466630.html","Ask":"40","ImageThumb":"http://images.craigslist.org/00w0w_eN2IVQNOYX6_50x50c.jpg","PostingID":"4415466630","CategoryID":"141","Latitude":38.60263,"PostingTitle":"Desk, Filing Cabinet, Bookcase, Bookshelves","PostedDate":"1397322334"},{"Longitude":-77.000084,"PostingURL":"/doc/fuo/4419631482.html","Ask":"20","ImageThumb":"http://images.craigslist.org/00n0n_lSUCTTi8E9Y_50x50c.jpg","PostingID":"4419631482","CategoryID":"141","Latitude":38.889854,"PostingTitle":"Desk, office chair, and side table $20 OBO","PostedDate":"1397323312"},{"Longitude":-77.2336794554488,"NumPosts":"2","PostedDate":"1397694601","GeoCluster":"112082777656","PostingID":"4426513314","url":"/jsonsearch/sss/?geocluster=112082777656&key=dXglwZJKHr66d20F8PGMJg","Latitude":38.7757209243056},{"Longitude":-77.3927898351481,"NumPosts":"9","PostedDate":"1397928537","GeoCluster":"112082962057","PostingID":"4430491266","url":"/jsonsearch/sss/?geocluster=112082962057&key=7g8PStVTLkr37J25901MUA","Latitude":38.9252056130472},{"Longitude":-77.2040002416626,"NumPosts":"3","PostedDate":"1397919556","GeoCluster":"112082679926","PostingID":"4416735604","url":"/jsonsearch/sss/?geocluster=112082679926&key=j4DiBpg2gizghpdMAvBuog","Latitude":38.6928712271342},{"Longitude":-77.505261,"PostingURL":"/nva/fuo/4419284704.html","Ask":"25","ImageThumb":"http://images.craigslist.org/00L0L_1Pegt9otYCj_50x50c.jpg","PostingID":"4419284704","CategoryID":"141","Latitude":38.919705,"PostingTitle":"IKEA Expedit Desk - Black Brown","PostedDate":"1397310778"},{"Longitude":-77.113759,"PostingURL":"/nva/fuo/4419291519.html","Ask":"100","ImageThumb":"http://images.craigslist.org/00X0X_6zqPTO7Fhkp_50x50c.jpg","PostingID":"4419291519","CategoryID":"141","Latitude":38.827917,"PostingTitle":"Modern Glass Top Desk & Chair","PostedDate":"1397311093"},{"Longitude":-77.08047,"PostingURL":"/nva/fuo/4419384837.html","Ask":"30","ImageThumb":"http://images.craigslist.org/00s0s_9docOFAjDMh_50x50c.jpg","PostingID":"4419384837","CategoryID":"141","Latitude":38.864357,"PostingTitle":"Desk with hutch for sale ","PostedDate":"1397314836"},{"Longitude":-77.070271,"PostingURL":"/nva/atq/4419358702.html","Ask":"100","ImageThumb":"http://images.craigslist.org/00k0k_f1GR1WOQ4Vn_50x50c.jpg","PostingID":"4419358702","CategoryID":"150","Latitude":38.71619,"PostingTitle":"Old student school desk","PostedDate":"1397313843"},{"Longitude":-77.0176743666961,"NumPosts":"3","PostedDate":"1397876166","GeoCluster":"112082991822","PostingID":"4426637555","url":"/jsonsearch/sss/?geocluster=112082991822&key=sFsmvIkQF9uOyDpnWy17gQ","Latitude":38.9121994710985},{"Longitude":-77.303637,"PostingURL":"/nva/fuo/4419172048.html","Ask":"75","ImageThumb":"http://images.craigslist.org/00Y0Y_7rhNydg3xwf_50x50c.jpg","PostingID":"4419172048","CategoryID":"141","Latitude":38.683474,"PostingTitle":"Computer Desk - all wood! (world market)","PostedDate":"1397303890"},{"Longitude":-76.8891026374757,"NumPosts":"2","PostedDate":"1397673114","GeoCluster":"112083815130","PostingID":"4421997797","url":"/jsonsearch/sss/?geocluster=112083815130&key=ryBFWgvZo0U8oxy5TMb-0Q","Latitude":38.8538723675573},{"Longitude":-77.14424,"PostingURL":"/nva/fuo/4419267433.html","Ask":"70","ImageThumb":"http://images.craigslist.org/00404_gx08nJRIpJx_50x50c.jpg","PostingID":"4419267433","CategoryID":"141","Latitude":38.767413,"PostingTitle":"Glass desk w/Hutch","PostedDate":"1397309953"},{"Longitude":-76.8433806054267,"NumPosts":"2","PostedDate":"1397907736","GeoCluster":"112093112506","PostingID":"4419171960","url":"/jsonsearch/sss/?geocluster=112093112506&key=_FTbefJCxt6vcl8C38mNWw","Latitude":39.1208134042944},{"Longitude":-77.228408,"PostingURL":"/mld/fuo/4414379996.html","Ask":"35","ImageThumb":"http://images.craigslist.org/01212_fYrCjQ0733_50x50c.jpg","PostingID":"4414379996","CategoryID":"141","Latitude":39.140809,"PostingTitle":"LEATHER OFFICE/DESK CHAIR","PostedDate":"1397303062"},{"Longitude":-77.031941,"PostingURL":"/doc/fuo/4408243247.html","Ask":"50","ImageThumb":"http://images.craigslist.org/00505_jpQuGiEbg9v_50x50c.jpg","PostingID":"4408243247","CategoryID":"141","Latitude":38.918559,"PostingTitle":"CB2 Trig Desk","PostedDate":"1397304902"},{"Longitude":-76.791012,"PostingURL":"/mld/fuo/4408169748.html","Ask":"25","ImageThumb":"http://images.craigslist.org/00d0d_daNpWgZ9SLa_50x50c.jpg","PostingID":"4408169748","CategoryID":"141","Latitude":38.988517,"PostingTitle":"Ikea Dinning Room Glass Table or Desk ","PostedDate":"1397304480"},{"Longitude":-77.23133,"PostingURL":"/nva/bab/4430572698.html","Ask":"15","ImageThumb":"http://images.craigslist.org/00k0k_jFVh1pvqLq2_50x50c.jpg","PostingID":"4430572698","CategoryID":"107","Latitude":38.92658,"PostingTitle":"Kid table(desk) and chairs - IKEA","PostedDate":"1397931417"},{"Longitude":-77.244852,"PostingURL":"/nva/bab/4430156847.html","Ask":"10","ImageThumb":"http://images.craigslist.org/00N0N_bGDvLsXx2FD_50x50c.jpg","PostingID":"4430156847","CategoryID":"107","Latitude":38.757844,"PostingTitle":"desk to play or homework","PostedDate":"1397916259"},{"Longitude":-77.0208256345692,"NumPosts":"3","PostedDate":"1397880401","GeoCluster":"112092091709","PostingID":"4416347996","url":"/jsonsearch/sss/?geocluster=112092091709&key=QnoYTXJ5nHmdc6qTIZbM4Q","Latitude":39.010003366722},{"Longitude":-76.525618,"PostingURL":"/mld/fuo/4424971246.html","Ask":"60","ImageThumb":"http://images.craigslist.org/00f0f_fW9SUMw9jfc_50x50c.jpg","PostingID":"4424971246","CategoryID":"141","Latitude":38.973964,"PostingTitle":"Desk/Chair Set","PostedDate":"1397873960"},{"Longitude":-77.06288,"PostingURL":"/nva/fuo/4429075494.html","Ask":"40","ImageThumb":"http://images.craigslist.org/00R0R_lHzqIw0ixNP_50x50c.jpg","PostingID":"4429075494","CategoryID":"141","Latitude":38.819208,"PostingTitle":"Kneeling Ergnomoic Desk Chair","PostedDate":"1397845228"},{"Longitude":-77.06775,"PostingURL":"/doc/fuo/4428951208.html","Ask":"60","ImageThumb":"http://images.craigslist.org/00606_4EBs6Gjzgan_50x50c.jpg","PostingID":"4428951208","CategoryID":"141","Latitude":38.951389,"PostingTitle":"Desk Chair, Ikea Nominell Black Swivel","PostedDate":"1397841265"},{"Longitude":-77.074454,"PostingURL":"/doc/fuo/4428839398.html","Ask":"20","ImageThumb":"http://images.craigslist.org/00u0u_jt8b0tmsN32_50x50c.jpg","PostingID":"4428839398","CategoryID":"141","Latitude":38.933456,"PostingTitle":"Ikea White Desk","PostedDate":"1397837700"},{"Longitude":-77.002261,"PostingURL":"/doc/fuo/4423484321.html","Ask":"35","ImageThumb":"http://images.craigslist.org/00z0z_8WmFA9eJTDw_50x50c.jpg","PostingID":"4423484321","CategoryID":"141","Latitude":38.911225,"PostingTitle":"Adjustable Desk Chair","PostedDate":"1397834959"},{"Longitude":-77.379325,"PostingURL":"/nva/fuo/4428538228.html","Ask":"20","ImageThumb":"http://images.craigslist.org/00U0U_gjRmzoZf2Uj_50x50c.jpg","PostingID":"4428538228","CategoryID":"141","Latitude":38.845335,"PostingTitle":"Office Desk Chairs","PostedDate":"1397826239"},{"Longitude":-77.310398,"PostingURL":"/nva/fuo/4408286315.html","Ask":"10","ImageThumb":"http://images.craigslist.org/00z0z_6rlrfNeGojT_50x50c.jpg","PostingID":"4408286315","CategoryID":"141","Latitude":38.662504,"PostingTitle":"Desk/Workstation Table Top","PostedDate":"1397787053"},{"Longitude":-77.092158,"PostingURL":"/nva/fuo/4427851374.html","Ask":"50","ImageThumb":"http://images.craigslist.org/00O0O_aEc14MZc0kT_50x50c.jpg","PostingID":"4427851374","CategoryID":"141","Latitude":38.843272,"PostingTitle":"Moving sale! Bookshelf/dresser/desk","PostedDate":"1397770896"},{"Longitude":-77.202567,"PostingURL":"/mld/fuo/4419675821.html","Ask":"99","ImageThumb":"http://images.craigslist.org/00Z0Z_hL144bVlhJT_50x50c.jpg","PostingID":"4419675821","CategoryID":"141","Latitude":39.287945,"PostingTitle":"vintage wood cast iron school house desk","PostedDate":"1397765694"},{"Longitude":-77.164236,"PostingURL":"/mld/atq/4427431791.html","Ask":"100","ImageThumb":"http://images.craigslist.org/00Y0Y_8crZ3lH4tIw_50x50c.jpg","PostingID":"4427431791","CategoryID":"150","Latitude":39.024671,"PostingTitle":"Antique Roll Top Desk","PostedDate":"1397756264"},{"Longitude":-77.423156,"PostingURL":"/nva/fuo/4409297267.html","Ask":"65","ImageThumb":"http://images.craigslist.org/00V0V_bIfzYp4O4OW_50x50c.jpg","PostingID":"4409297267","CategoryID":"141","Latitude":38.905954,"PostingTitle":"Very comfortable vintage (1971) Gunlocke desk / side / office armchair","PostedDate":"1397754036"},{"Longitude":-77.4306050496247,"NumPosts":"2","PostedDate":"1397860985","GeoCluster":"112082455689","PostingID":"4429508711","url":"/jsonsearch/sss/?geocluster=112082455689&key=PY0gQm4Dgz-kg7Xuj_Z0Eg","Latitude":38.4585887847178},{"Longitude":-77.043457,"PostingURL":"/doc/fuo/4427203849.html","Ask":"50","ImageThumb":"http://images.craigslist.org/00202_jWAQUk1yDde_50x50c.jpg","PostingID":"4427203849","CategoryID":"141","Latitude":38.925549,"PostingTitle":"Light pine medium sized desk","PostedDate":"1397748858"},{"Longitude":-77.2094433407161,"NumPosts":"2","PostedDate":"1397740857","GeoCluster":"112092174970","PostingID":"4422230849","url":"/jsonsearch/sss/?geocluster=112092174970&key=ImYfDOjn3dmXDzsEn_UPLQ","Latitude":39.1473413502075},{"Longitude":-77.08958,"PostingURL":"/nva/fuo/4426184332.html","Ask":"25","ImageThumb":"http://images.craigslist.org/01515_lvpIoQs7aSm_50x50c.jpg","PostingID":"4426184332","CategoryID":"141","Latitude":38.827573,"PostingTitle":"Ikea NYFORS desk lamp","PostedDate":"1397681221"},{"Longitude":-77.062995,"PostingURL":"/nva/fuo/4425947274.html","Ask":"35","ImageThumb":"http://images.craigslist.org/00a0a_URdfYnmdzK_50x50c.jpg","PostingID":"4425947274","CategoryID":"141","Latitude":38.858398,"PostingTitle":"Small Black Desk-Like New-$35obo","PostedDate":"1397673330"},{"Longitude":-76.988281,"PostingURL":"/doc/fuo/4425572316.html","Ask":"20","ImageThumb":"http://images.craigslist.org/00x0x_bZm22kdHjqZ_50x50c.jpg","PostingID":"4425572316","CategoryID":"141","Latitude":38.886015,"PostingTitle":"Office Desk Swivel chair","PostedDate":"1397661596"},{"Longitude":-77.18979,"PostingURL":"/nva/fuo/4415167510.html","Ask":"20","ImageThumb":"http://images.craigslist.org/00y0y_E9NI510e8O_50x50c.jpg","PostingID":"4415167510","CategoryID":"141","Latitude":38.733207,"PostingTitle":"Metal \"fireproof\" desk","PostedDate":"1397652010"},{"Longitude":-76.985588,"PostingURL":"/doc/fuo/4423059685.html","Ask":"35","ImageThumb":"http://images.craigslist.org/00b0b_hjjkYIz6atX_50x50c.jpg","PostingID":"4423059685","CategoryID":"141","Latitude":39.015561,"PostingTitle":"Executive desk chairs..","PostedDate":"1397514474"},{"Longitude":-77.298251,"PostingURL":"/nva/fuo/4421019596.html","Ask":"40","ImageThumb":"http://images.craigslist.org/00V0V_6aTncLGv4uv_50x50c.jpg","PostingID":"4421019596","CategoryID":"141","Latitude":38.790159,"PostingTitle":"Student desk","PostedDate":"1397411030"},{"Longitude":-77.453924,"PostingURL":"/nva/fuo/4420957781.html","Ask":"10","ImageThumb":"http://images.craigslist.org/00O0O_8reH8cm5RG3_50x50c.jpg","PostingID":"4420957781","CategoryID":"141","Latitude":38.846538,"PostingTitle":"Computer Desk","PostedDate":"1397408648"},{"Longitude":-77.373939,"PostingURL":"/nva/for/4417034678.html","Ask":"20","ImageThumb":"http://images.craigslist.org/00O0O_lMEgAR0mhrv_50x50c.jpg","PostingID":"4417034678","CategoryID":"5","Latitude":38.924976,"PostingTitle":"office, desk, computer, rolling arm chairs","PostedDate":"1397392253"},{"Longitude":-77.254535,"PostingURL":"/nva/atq/4407627340.html","Ask":"40","ImageThumb":"http://images.craigslist.org/00F0F_1AcOfdvcUUh_50x50c.jpg","PostingID":"4407627340","CategoryID":"150","Latitude":38.826599,"PostingTitle":"Antique desk chair","PostedDate":"1397389491"},{"Longitude":-77.527377,"PostingURL":"/nva/sys/4420189448.html","Ask":"30","ImageThumb":"http://images.craigslist.org/00f0f_29r59cfuAc6_50x50c.jpg","PostingID":"4420189448","CategoryID":"7","Latitude":38.795086,"PostingTitle":"Compaq Presario S6500NX desk top","PostedDate":"1397346396"},{"Longitude":-77.292522,"PostingURL":"/nva/fuo/4410641084.html","Ask":"50","ImageThumb":"http://images.craigslist.org/00P0P_1aH3UtP2FpB_50x50c.jpg","PostingID":"4410641084","CategoryID":"141","Latitude":38.817718,"PostingTitle":"Desk","PostedDate":"1397345653"},{"Longitude":-77.054973,"PostingURL":"/nva/fuo/4419467615.html","Ask":"30","ImageThumb":"http://images.craigslist.org/00H0H_lDjkAWBvc0v_50x50c.jpg","PostingID":"4419467615","CategoryID":"141","Latitude":38.833475,"PostingTitle":"Desk & Unique Chest -Sale today!!!","PostedDate":"1397317766"},{"Longitude":-77.734215,"PostingURL":"/nva/fuo/4419384919.html","Ask":"50","ImageThumb":"http://images.craigslist.org/00A0A_1DVrFeUT4cB_50x50c.jpg","PostingID":"4419384919","CategoryID":"141","Latitude":39.143617,"PostingTitle":"Office Desk Chair","PostedDate":"1397314839"},{"Longitude":-77.341796,"PostingURL":"/nva/fuo/4394674421.html","Ask":"10","ImageThumb":"http://images.craigslist.org/00u0u_jNjICjMmuW0_50x50c.jpg","PostingID":"4394674421","CategoryID":"141","Latitude":38.961473,"PostingTitle":"Black desk chair","PostedDate":"1395938636"},{"Longitude":-77.088721,"PostingURL":"/nva/fuo/4430815836.html","Ask":"10","ImageThumb":"http://images.craigslist.org/00m0m_hXXyvuqCZyS_50x50c.jpg","PostingID":"4430815836","CategoryID":"141","Latitude":38.889338,"PostingTitle":"Moving Sale! dresser, coffee table, ikea shelving, storage, kitchen...","PostedDate":"1397941584"},{"Longitude":-77.35973,"PostingURL":"/nva/fuo/4430569786.html","Ask":"75","ImageThumb":"http://images.craigslist.org/00U0U_ywO14uaY5Z_50x50c.jpg","PostingID":"4430569786","CategoryID":"141","Latitude":38.879941,"PostingTitle":"Ikea Birch FJELLDAL Hardwood Double Loft Bed","PostedDate":"1397931314"},{"Longitude":-77.027242,"PostingURL":"/doc/fuo/4430755290.html","Ask":"50","ImageThumb":"http://images.craigslist.org/00000_7Bn0mVKHDAA_50x50c.jpg","PostingID":"4430755290","CategoryID":"141","Latitude":38.904292,"PostingTitle":"Moving Sale - Quality Leather Couches, tables, desks, beds, stands... ","PostedDate":"1397938234"},{"Longitude":-77.063568,"PostingURL":"/nva/fuo/4430701598.html","Ask":"25","ImageThumb":"http://images.craigslist.org/00Q0Q_aDcKJdNI4g9_50x50c.jpg","PostingID":"4430701598","CategoryID":"141","Latitude":38.790331,"PostingTitle":"High Back Rolling Executive Leather Black Office Chair","PostedDate":"1397936166"},{"Longitude":-77.104649,"PostingURL":"/nva/for/4385033624.html","Ask":"60","ImageThumb":"http://images.craigslist.org/00C0C_8VvHGIDvX1f_50x50c.jpg","PostingID":"4385033624","CategoryID":"5","Latitude":38.839605,"PostingTitle":"Distressed Amish Style Barnwood Wall Curio Shelf","PostedDate":"1397915403"},{"Longitude":-77.01521,"PostingURL":"/doc/fuo/4406619394.html","Ask":"15","ImageThumb":"http://images.craigslist.org/00b0b_68ZxbGI5dbf_50x50c.jpg","PostingID":"4406619394","CategoryID":"141","Latitude":38.909621,"PostingTitle":"MOVING: Crate & Barrel, West Elm, Ikea","PostedDate":"1397903935"},{"Longitude":-77.51397,"PostingURL":"/nva/fuo/4430107214.html","Ask":"15","ImageThumb":"http://images.craigslist.org/00000_6eIBDDogr1Q_50x50c.jpg","PostingID":"4430107214","CategoryID":"141","Latitude":38.97935,"PostingTitle":"Moving Furniture Sale","PostedDate":"1397913815"},{"Longitude":-77.181826,"PostingURL":"/nva/fuo/4417244044.html","Ask":"60","ImageThumb":"http://images.craigslist.org/00I0I_4UGUFeAYNtG_50x50c.jpg","PostingID":"4417244044","CategoryID":"141","Latitude":38.801446,"PostingTitle":"Solid Wood Tri fold Mirror in good condition, can DELIVER!!!","PostedDate":"1397932949"},{"Longitude":-77.449398065304,"NumPosts":"2","PostedDate":"1397930586","GeoCluster":"112082757500","PostingID":"4430511975","url":"/jsonsearch/sss/?geocluster=112082757500&key=KahI0UJsGfBrMewu7Efhdg","Latitude":38.7706788957088},{"Longitude":-77.56313,"PostingURL":"/nva/msg/4430013911.html","Ask":"20","ImageThumb":"http://images.craigslist.org/00808_6C4WjDAOjXi_50x50c.jpg","PostingID":"4430013911","CategoryID":"98","Latitude":38.816458,"PostingTitle":"Music Stand (white) by Manhasset","PostedDate":"1397906541"},{"Longitude":-77.138167,"PostingURL":"/nva/bfs/4409885073.html","Ask":"20","ImageThumb":"http://images.craigslist.org/01111_e7jzcljthuK_50x50c.jpg","PostingID":"4409885073","CategoryID":"134","Latitude":38.808494,"PostingTitle":"Sturdy Metal File Organizer","PostedDate":"1397891997"},{"Longitude":-77.235799,"PostingURL":"/mld/bfs/4429898208.html","Ask":"10","ImageThumb":"http://images.craigslist.org/00j0j_2jRn7Kf5C21_50x50c.jpg","PostingID":"4429898208","CategoryID":"134","Latitude":39.188021,"PostingTitle":"Office Organizing Items - Sorters/File ","PostedDate":"1397885313"},{"Longitude":-77.414619,"PostingURL":"/nva/fuo/4418286496.html","Ask":"100","ImageThumb":"http://images.craigslist.org/00c0c_7WKCSXekvra_50x50c.jpg","PostingID":"4418286496","CategoryID":"141","Latitude":39.017108,"PostingTitle":"Matching Wood Mahogany Desks Three Corner Room Draws Executive Brown","PostedDate":"1397833857"},{"Longitude":-77.062708,"PostingURL":"/nva/fuo/4424826057.html","Ask":"70","ImageThumb":"http://images.craigslist.org/00303_d5Y9ieYAsYB_50x50c.jpg","PostingID":"4424826057","CategoryID":"141","Latitude":38.861206,"PostingTitle":"IKEA POANG chair and ottoman - like new","PostedDate":"1397862599"},{"Longitude":-77.018132,"PostingURL":"/nva/hsd/4387105092.html","Ask":"16","ImageThumb":"http://images.craigslist.org/00303_kRa26rVDIpc_50x50c.jpg","PostingID":"4387105092","CategoryID":"181","Latitude":38.916267,"PostingTitle":"LAMPS LIGHTS DISNEY PIXAR tinkerbell cars toy story spiderman + more !","PostedDate":"1397858267"},{"Longitude":-76.991833,"PostingURL":"/nva/bad/4383158611.html","Ask":"16","PostingID":"4383158611","CategoryID":"171","Latitude":38.884353,"PostingTitle":"LAMPS LIGHTS DISNEY PIXAR tinkerbell cars toy story spiderman + more !","PostedDate":"1397858205"},{"Longitude":-77.025122,"PostingURL":"/nva/hsd/4386296119.html","Ask":"16","ImageThumb":"http://images.craigslist.org/00E0E_1gFpLUGot5G_50x50c.jpg","PostingID":"4386296119","CategoryID":"181","Latitude":38.894781,"PostingTitle":"LAMPS LIGHTS DISNEY PIXAR tinkerbell cars toy story spiderman + more !","PostedDate":"1397858088"},{"Longitude":-76.6297246436339,"NumPosts":"2","PostedDate":"1397833628","GeoCluster":"112093136710","PostingID":"4417167730","url":"/jsonsearch/sss/?geocluster=112093136710&key=iVQs5TbaxCeAbftNJu__8A","Latitude":39.161779886644},{"Longitude":-77.050848,"PostingURL":"/doc/fuo/4423832441.html","Ask":"20","ImageThumb":"http://images.craigslist.org/00r0r_aLuGDhJlVcQ_50x50c.jpg","PostingID":"4423832441","CategoryID":"141","Latitude":38.897703,"PostingTitle":"Carpet, Bar stools, Chairs, Poang Ikea, Drafting Table (Cheap, Cozy)","PostedDate":"1397844771"},{"Longitude":-77.358526,"PostingURL":"/nva/sys/4394916476.html","Ask":"15","ImageThumb":"http://images.craigslist.org/00N0N_8YIrB1HCteb_50x50c.jpg","PostingID":"4394916476","CategoryID":"7","Latitude":38.754177,"PostingTitle":"Imation SuperDisk USB Drive for Mac","PostedDate":"1397842034"},{"Longitude":-77.04254,"PostingURL":"/doc/fuo/4415620893.html","Ask":"90","ImageThumb":"http://images.craigslist.org/00g0g_2FaartN9CZu_50x50c.jpg","PostingID":"4415620893","CategoryID":"141","Latitude":38.917241,"PostingTitle":"Dark wood coffee table","PostedDate":"1397841086"},{"Longitude":-77.638302,"PostingURL":"/nva/fuo/4428656540.html","Ask":"55","ImageThumb":"http://images.craigslist.org/00o0o_c2czsE6lMoS_50x50c.jpg","PostingID":"4428656540","CategoryID":"141","Latitude":38.637007,"PostingTitle":"Sale~Chic Accent Table~","PostedDate":"1397831457"},{"Longitude":-76.906749,"PostingURL":"/mld/fuo/4428622673.html","Ask":"50","ImageThumb":"http://images.craigslist.org/00303_7wmpp8Oqzv5_50x50c.jpg","PostingID":"4428622673","CategoryID":"141","Latitude":38.808952,"PostingTitle":"+++FURNITURE for SALE+++","PostedDate":"1397830143"},{"Longitude":-77.692446,"PostingURL":"/mld/mob/4428591039.html","Ask":"75","ImageThumb":"http://images.craigslist.org/00L0L_5QzF7EEG5vU_50x50c.jpg","PostingID":"4428591039","CategoryID":"153","Latitude":39.616421,"PostingTitle":" Google Nexus Accessories ","PostedDate":"1397829529"},{"Longitude":-77.5134547467962,"NumPosts":"6","PostedDate":"1397829101","GeoCluster":"112082346816","PostingID":"4418178768","url":"/jsonsearch/sss/?geocluster=112082346816&key=DwqWHY7mzrC-zSo5EHCIfA","Latitude":38.3610140722123},{"Longitude":-77.1072849658498,"NumPosts":"2","PostedDate":"1397847572","GeoCluster":"112082781992","PostingID":"4420629094","url":"/jsonsearch/sss/?geocluster=112082781992&key=57gUkLvGuOOYxHKsLuwU6A","Latitude":38.7191699899293},{"Longitude":-78.1564279844574,"NumPosts":"2","PostedDate":"1397819797","GeoCluster":"112091189493","PostingID":"4396531508","url":"/jsonsearch/sss/?geocluster=112091189493&key=d3KI5zEA0glSY0jOY6p3Uw","Latitude":39.1997096926796},{"Longitude":-77.139084,"PostingURL":"/nva/fuo/4428248091.html","Ask":"50","ImageThumb":"http://images.craigslist.org/01313_dF9nixJ663a_50x50c.jpg","PostingID":"4428248091","CategoryID":"141","Latitude":38.808436,"PostingTitle":"Ergonomic Kneeling Chair ","PostedDate":"1397790398"},{"Longitude":-77.186983,"PostingURL":"/mld/fud/4396421585.html","Ask":"20","ImageThumb":"http://images.craigslist.org/00g0g_cCXj7w2HHzi_50x50c.jpg","PostingID":"4396421585","CategoryID":"142","Latitude":39.118808,"PostingTitle":"Great furniture, EVEN better prices !!!","PostedDate":"1397749931"},{"Longitude":-77.031941,"PostingURL":"/doc/fuo/4391138040.html","Ask":"35","ImageThumb":"http://images.craigslist.org/00U0U_9DInP79br2x_50x50c.jpg","PostingID":"4391138040","CategoryID":"141","Latitude":38.91111,"PostingTitle":"DESK - Modern and Lightweight","PostedDate":"1395754692"},{"Longitude":-76.9477162199144,"NumPosts":"5","PostedDate":"1397821921","GeoCluster":"112093003592","PostingID":"4428477951","url":"/jsonsearch/sss/?geocluster=112093003592&key=RTlZWIoNJtVmEAtiiTMgBA","Latitude":39.0397398762877},{"Longitude":-77.157476,"PostingURL":"/mld/fuo/4428004134.html","Ask":"60","ImageThumb":"http://images.craigslist.org/00B0B_ebMYRj0Zylh_50x50c.jpg","PostingID":"4428004134","CategoryID":"141","Latitude":39.075721,"PostingTitle":"oval silver miror and other items","PostedDate":"1397780146"},{"Longitude":-77.104305,"PostingURL":"/nva/atq/4391310523.html","Ask":"25","ImageThumb":"http://images.craigslist.org/00g0g_bKOGZevyaTx_50x50c.jpg","PostingID":"4391310523","CategoryID":"150","Latitude":38.894781,"PostingTitle":"Shaker Style Mule Ear Chair - Oak and Rush in Very Good Condition","PostedDate":"1397776102"},{"Longitude":-77.071131,"PostingURL":"/doc/fuo/4427928056.html","Ask":"30","PostingID":"4427928056","CategoryID":"141","Latitude":38.912657,"PostingTitle":"Couches, table&chairs for sale! Cheap, furnish your entire house","PostedDate":"1397774003"},{"Longitude":-77.13238,"PostingURL":"/nva/ele/4424110262.html","Ask":"25","ImageThumb":"http://images.craigslist.org/00Y0Y_kkcFtSgKhDS_50x50c.jpg","PostingID":"4424110262","CategoryID":"96","Latitude":38.85433,"PostingTitle":"Conair TAD2018CG Digital Answering Machine New","PostedDate":"1397772367"},{"Longitude":-77.102071,"PostingURL":"/mld/fuo/4427881637.html","Ask":"75","ImageThumb":"http://images.craigslist.org/00x0x_klOOtsqmI8d_50x50c.jpg","PostingID":"4427881637","CategoryID":"141","Latitude":39.009888,"PostingTitle":"CHILDREN'S IKEA \"LO\" BED","PostedDate":"1397772087"},{"Longitude":-77.017731,"PostingURL":"/doc/fuo/4427838499.html","Ask":"20","ImageThumb":"http://images.craigslist.org/01212_2VtX5CUkwOI_50x50c.jpg","PostingID":"4427838499","CategoryID":"141","Latitude":38.918387,"PostingTitle":"Ikea Solid Pine Top Sawhorse Worktable ","PostedDate":"1397770381"},{"Longitude":-77.096398,"PostingURL":"/nva/fuo/4419555569.html","Ask":"80","ImageThumb":"http://images.craigslist.org/00H0H_aKJgVaeCaFj_50x50c.jpg","PostingID":"4419555569","CategoryID":"141","Latitude":38.868425,"PostingTitle":"Entertainment Center","PostedDate":"1397767086"},{"Longitude":-77.038472,"PostingURL":"/doc/fuo/4427684369.html","Ask":"50","PostingID":"4427684369","CategoryID":"141","Latitude":38.915522,"PostingTitle":"MOVING SALE - MCM Chair, Crate & Barrel Petrie Chair, CB2, etc.","PostedDate":"1397764712"},{"Longitude":-77.27201,"PostingURL":"/nva/fuo/4427677811.html","Ask":"80","ImageThumb":"http://images.craigslist.org/00505_b3Z3iTF3is0_50x50c.jpg","PostingID":"4427677811","CategoryID":"141","Latitude":38.883265,"PostingTitle":"Turck load of good resale items","PostedDate":"1397764486"},{"Longitude":-77.021398,"PostingURL":"/doc/spo/4427625128.html","Ask":"15","ImageThumb":"http://images.craigslist.org/00o0o_6oDuLQs0amP_50x50c.jpg","PostingID":"4427625128","CategoryID":"93","Latitude":38.971271,"PostingTitle":"Everlast Speed Bag (small)","PostedDate":"1397762669"},{"Longitude":-76.951497,"PostingURL":"/mld/emd/4409871264.html","Ask":"15","ImageThumb":"http://images.craigslist.org/00v0v_eMPmzNcuty4_50x50c.jpg","PostingID":"4409871264","CategoryID":"117","Latitude":39.212486,"PostingTitle":"CD HOLDER RACKS","PostedDate":"1397752199"},{"Longitude":-77.246055,"PostingURL":"/nva/hsh/4427189756.html","Ask":"40","ImageThumb":"http://images.craigslist.org/00u0u_bNHeeo5BcVa_50x50c.jpg","PostingID":"4427189756","CategoryID":"97","Latitude":38.759162,"PostingTitle":"lamp chrome and cream - nice light","PostedDate":"1397748378"},{"Longitude":-77.182055,"PostingURL":"/nva/fuo/4417747070.html","Ask":"60","ImageThumb":"http://images.craigslist.org/00E0E_iekretz2L5L_50x50c.jpg","PostingID":"4417747070","CategoryID":"141","Latitude":38.801389,"PostingTitle":"Solid Wood Tri fold Mirror good condition,can DELIVER!!!","PostedDate":"1397747735"},